[
	{
		"rawdata_guid": "e1f690ee-d728-11ed-98df-000c29627401",
		"rawdata_code": "drakensteinstudcom",
		"rawdata_link": "drakensteinstud.com",
		"rawdata_latitude": -33.8803404858368,
		"rawdata_longitude": 19.00825435727691,
		"rawdata_address": "L'ormarins Wine Estate, R45, Groot Drakenstein, South Africa",
		"category_guid": "abcc76b0-4d5f-11ed-98da-000c29627401",
		"category_id": "002",
		"category_description": "Equine: Farm",
		"category_mapdescription": "Stable",
		"country_description": "South Africa",
		"country_guid": "07de3e11-e7cb-11ec-98d7-000c29627401",
		"areacity_guid": "cfa26055-6f1c-11ee-98df-000c29627401",
		"areacity_description": "Stellenbosch",
		"areacity_latitude": -33.93609275909182,
		"areacity_longitude": 18.85977383760847,
		"ehoss_present": false
	},
	{
		"rawdata_guid": "6e439750-45a7-11ee-98df-000c29627401",
		"rawdata_code": "pferdundducom",
		"rawdata_link": "pferdunddu.com",
		"rawdata_latitude": 48.20146323866426,
		"rawdata_longitude": 14.4122154403569,
		"rawdata_address": "Oberndorf 10, 4490, Austria",
		"category_guid": "abcc76b0-4d5f-11ed-98da-000c29627401",
		"category_id": "002",
		"category_description": "Equine: Farm",
		"category_mapdescription": "Stable",
		"country_description": "Austria",
		"country_guid": "dc9cebb9-e7c4-11ec-98d7-000c29627401",
		"areacity_guid": "833433c5-4440-11ee-98df-000c29627401",
		"areacity_description": "Enns",
		"areacity_latitude": 48.21382044645531,
		"areacity_longitude": 14.47862913793003,
		"ehoss_present": false
	},
	{
		"rawdata_guid": "79b5e2a7-45a7-11ee-98df-000c29627401",
		"rawdata_code": "moeslcom",
		"rawdata_link": "moesl.com",
		"rawdata_latitude": 47.90205569297221,
		"rawdata_longitude": 13.09517363980369,
		"rawdata_address": "Wimm 9, 5201 Seekirchen Am Wallersee, Austria",
		"category_guid": "abcc76b0-4d5f-11ed-98da-000c29627401",
		"category_id": "002",
		"category_description": "Equine: Farm",
		"category_mapdescription": "Stable",
		"country_description": "Austria",
		"country_guid": "dc9cebb9-e7c4-11ec-98d7-000c29627401",
		"areacity_guid": "a0689a8b-443d-11ee-98df-000c29627401",
		"areacity_description": "Seekirchen am Wallersee",
		"areacity_latitude": 47.89392133681817,
		"areacity_longitude": 13.12242376773518,
		"ehoss_present": false
	},
	{
		"rawdata_guid": "8baacd07-45a7-11ee-98df-000c29627401",
		"rawdata_code": "piethoyosat",
		"rawdata_link": "piethoyos.at",
		"rawdata_latitude": 47.21431415990536,
		"rawdata_longitude": 15.41403456916196,
		"rawdata_address": "Unterer Windhof 10, 8102 Semriach, Austria",
		"category_guid": "abcc76b0-4d5f-11ed-98da-000c29627401",
		"category_id": "002",
		"category_description": "Equine: Farm",
		"category_mapdescription": "Stable",
		"country_description": "Austria",
		"country_guid": "dc9cebb9-e7c4-11ec-98d7-000c29627401",
		"areacity_guid": "9411c6b5-4437-11ee-98df-000c29627401",
		"areacity_description": "Graz",
		"areacity_latitude": 47.07072583603133,
		"areacity_longitude": 15.44006847794197,
		"ehoss_present": false
	},
	{
		"rawdata_guid": "a75db095-45a7-11ee-98df-000c29627401",
		"rawdata_code": "reiten-blumauat",
		"rawdata_link": "reiten-blumau.at",
		"rawdata_latitude": 47.91569751341711,
		"rawdata_longitude": 14.10652152500429,
		"rawdata_address": "Blumauer Str. 2, 4553 Schlierbach, Austria",
		"category_guid": "abcc76b0-4d5f-11ed-98da-000c29627401",
		"category_id": "002",
		"category_description": "Equine: Farm",
		"category_mapdescription": "Stable",
		"country_description": "Austria",
		"country_guid": "dc9cebb9-e7c4-11ec-98d7-000c29627401",
		"areacity_guid": "5bfbbf5a-4438-11ee-98df-000c29627401",
		"areacity_description": "Wels",
		"areacity_latitude": 48.15901670291513,
		"areacity_longitude": 14.02649427562994,
		"ehoss_present": false
	},
	{
		"rawdata_guid": "c81353fa-45a7-11ee-98df-000c29627401",
		"rawdata_code": "roemerwegcom",
		"rawdata_link": "roemerweg.com",
		"rawdata_latitude": 47.10524328941805,
		"rawdata_longitude": 15.58698221641411,
		"rawdata_address": "Römerweg 97, 8063 Höf-Präbach, Austria",
		"category_guid": "abcc76b0-4d5f-11ed-98da-000c29627401",
		"category_id": "002",
		"category_description": "Equine: Farm",
		"category_mapdescription": "Stable",
		"country_description": "Austria",
		"country_guid": "dc9cebb9-e7c4-11ec-98d7-000c29627401",
		"areacity_guid": "da50325a-443e-11ee-98df-000c29627401",
		"areacity_description": "Gleisdorf",
		"areacity_latitude": 47.10578448449759,
		"areacity_longitude": 15.70828198218104,
		"ehoss_present": false
	},
	{
		"rawdata_guid": "f4f6d53e-45a7-11ee-98df-000c29627401",
		"rawdata_code": "rodeoranchat",
		"rawdata_link": "rodeoranch.at",
		"rawdata_latitude": 47.50837271529237,
		"rawdata_longitude": 14.4120394262115,
		"rawdata_address": "Singsdorf 8A, 8786 Rottenmann, Austria",
		"category_guid": "abcc76b0-4d5f-11ed-98da-000c29627401",
		"category_id": "002",
		"category_description": "Equine: Farm",
		"category_mapdescription": "Stable",
		"country_description": "Austria",
		"country_guid": "dc9cebb9-e7c4-11ec-98d7-000c29627401",
		"areacity_guid": "72ae29f5-443e-11ee-98df-000c29627401",
		"areacity_description": "Knittelfeld",
		"areacity_latitude": 47.21508122167148,
		"areacity_longitude": 14.8285544218591,
		"ehoss_present": false
	},
	{
		"rawdata_guid": "06dfd473-45a8-11ee-98df-000c29627401",
		"rawdata_code": "tobiasbachler-ridingcoachcom",
		"rawdata_link": "tobiasbachler-ridingcoach.com",
		"rawdata_latitude": 47.20092117160499,
		"rawdata_longitude": 15.32580154002802,
		"rawdata_address": "Am Quellengrund 11, 8121 Deutschfeistritz, Austria",
		"category_guid": "abcc76b0-4d5f-11ed-98da-000c29627401",
		"category_id": "002",
		"category_description": "Equine: Farm",
		"category_mapdescription": "Stable",
		"country_description": "Austria",
		"country_guid": "dc9cebb9-e7c4-11ec-98d7-000c29627401",
		"areacity_guid": "9411c6b5-4437-11ee-98df-000c29627401",
		"areacity_description": "Graz",
		"areacity_latitude": 47.07072583603133,
		"areacity_longitude": 15.44006847794197,
		"ehoss_present": false
	},
	{
		"rawdata_guid": "1aa263fc-45a8-11ee-98df-000c29627401",
		"rawdata_code": "riverranchjimdofreecom",
		"rawdata_link": "riverranch.jimdofree.com",
		"rawdata_latitude": 47.39813579124542,
		"rawdata_longitude": 15.14933214907306,
		"rawdata_address": "Proleber Str., 8712 Niklasdorf, Austria",
		"category_guid": "abcc76b0-4d5f-11ed-98da-000c29627401",
		"category_id": "002",
		"category_description": "Equine: Farm",
		"category_mapdescription": "Stable",
		"country_description": "Austria",
		"country_guid": "dc9cebb9-e7c4-11ec-98d7-000c29627401",
		"areacity_guid": "11ca5b99-443e-11ee-98df-000c29627401",
		"areacity_description": "Leoben",
		"areacity_latitude": 47.37628653517206,
		"areacity_longitude": 15.09353052925234,
		"ehoss_present": false
	},
	{
		"rawdata_guid": "3d642720-45a8-11ee-98df-000c29627401",
		"rawdata_code": "am-sonnenhofat",
		"rawdata_link": "am-sonnenhof.at",
		"rawdata_latitude": 47.07146068591832,
		"rawdata_longitude": 15.54857703342423,
		"rawdata_address": "Sonnenweg 10, 8301 Hart Bei Graz, Austria",
		"category_guid": "abcc76b0-4d5f-11ed-98da-000c29627401",
		"category_id": "002",
		"category_description": "Equine: Farm",
		"category_mapdescription": "Stable",
		"country_description": "Austria",
		"country_guid": "dc9cebb9-e7c4-11ec-98d7-000c29627401",
		"areacity_guid": "9411c6b5-4437-11ee-98df-000c29627401",
		"areacity_description": "Graz",
		"areacity_latitude": 47.07072583603133,
		"areacity_longitude": 15.44006847794197,
		"ehoss_present": false
	},
	{
		"rawdata_guid": "6733454a-45a8-11ee-98df-000c29627401",
		"rawdata_code": "robauschnet",
		"rawdata_link": "robausch.net",
		"rawdata_latitude": 47.48566622530099,
		"rawdata_longitude": 15.36798761323373,
		"rawdata_address": "Poguschstraße 19, 8642 St. Lorenzen Im Mürztal, Austria",
		"category_guid": "abcc76b0-4d5f-11ed-98da-000c29627401",
		"category_id": "002",
		"category_description": "Equine: Farm",
		"category_mapdescription": "Stable",
		"country_description": "Austria",
		"country_guid": "dc9cebb9-e7c4-11ec-98d7-000c29627401",
		"areacity_guid": "22a5ecbd-443e-11ee-98df-000c29627401",
		"areacity_description": "Kapfenberg",
		"areacity_latitude": 47.44349089866283,
		"areacity_longitude": 15.28225481768346,
		"ehoss_present": false
	},
	{
		"rawdata_guid": "7c9f7fd5-45a8-11ee-98df-000c29627401",
		"rawdata_code": "ap-ranchjimdocom",
		"rawdata_link": "ap-ranch.jimdo.com",
		"rawdata_latitude": 48.00473998873242,
		"rawdata_longitude": 13.16007705743204,
		"rawdata_address": "Astätt 60, 5221 Astätt, Austria",
		"category_guid": "abcc76b0-4d5f-11ed-98da-000c29627401",
		"category_id": "002",
		"category_description": "Equine: Farm",
		"category_mapdescription": "Stable",
		"country_description": "Austria",
		"country_guid": "dc9cebb9-e7c4-11ec-98d7-000c29627401",
		"areacity_guid": "ebdef5a8-4437-11ee-98df-000c29627401",
		"areacity_description": "Salzburg",
		"areacity_latitude": 47.7999161381426,
		"areacity_longitude": 13.04526993488282,
		"ehoss_present": false
	},
	{
		"rawdata_guid": "ba315d92-45a8-11ee-98df-000c29627401",
		"rawdata_code": "wildmountainranchcom",
		"rawdata_link": "wildmountainranch.com",
		"rawdata_latitude": 48.44359127594534,
		"rawdata_longitude": 14.80187545541254,
		"rawdata_address": "Wildberg 10, 4273 Wildberg, Austria",
		"category_guid": "abcc76b0-4d5f-11ed-98da-000c29627401",
		"category_id": "002",
		"category_description": "Equine: Farm",
		"category_mapdescription": "Stable",
		"country_description": "Austria",
		"country_guid": "dc9cebb9-e7c4-11ec-98d7-000c29627401",
		"areacity_guid": "ac12a392-4437-11ee-98df-000c29627401",
		"areacity_description": "Linz",
		"areacity_latitude": 48.30416376654945,
		"areacity_longitude": 14.28861527960176,
		"ehoss_present": false
	},
	{
		"rawdata_guid": "c8ed931a-45a8-11ee-98df-000c29627401",
		"rawdata_code": "reitverein-aurolzmuensterjimdofreecom",
		"rawdata_link": "reitverein-aurolzmuenster.jimdofree.com",
		"rawdata_latitude": 48.2352276953084,
		"rawdata_longitude": 13.46126406919393,
		"rawdata_address": "Weierfing 2, 4971 Aurolzmünster, Austria",
		"category_guid": "abcc76b0-4d5f-11ed-98da-000c29627401",
		"category_id": "002",
		"category_description": "Equine: Farm",
		"category_mapdescription": "Stable",
		"country_description": "Austria",
		"country_guid": "dc9cebb9-e7c4-11ec-98d7-000c29627401",
		"areacity_guid": "925662a1-4440-11ee-98df-000c29627401",
		"areacity_description": "Ried im Innkreis",
		"areacity_latitude": 48.20723944611763,
		"areacity_longitude": 13.48607155156349,
		"ehoss_present": false
	},
	{
		"rawdata_guid": "d624e403-45a8-11ee-98df-000c29627401",
		"rawdata_code": "ponyreitschuleat",
		"rawdata_link": "ponyreitschule.at",
		"rawdata_latitude": 48.14507059417184,
		"rawdata_longitude": 15.62500942871405,
		"rawdata_address": "Wörth 3, 3151 St. Georgen Am Steinfeld, Austria",
		"category_guid": "abcc76b0-4d5f-11ed-98da-000c29627401",
		"category_id": "002",
		"category_description": "Equine: Farm",
		"category_mapdescription": "Stable",
		"country_description": "Austria",
		"country_guid": "dc9cebb9-e7c4-11ec-98d7-000c29627401",
		"areacity_guid": "77480f5d-4438-11ee-98df-000c29627401",
		"areacity_description": "Sankt Polten",
		"areacity_latitude": 48.20426074470878,
		"areacity_longitude": 15.62848731363069,
		"ehoss_present": false
	},
	{
		"rawdata_guid": "ef9b9137-45a8-11ee-98df-000c29627401",
		"rawdata_code": "pferdefreunde-zloamat",
		"rawdata_link": "pferdefreunde-zloam.at",
		"rawdata_latitude": 47.61633597107367,
		"rawdata_longitude": 13.83230617698651,
		"rawdata_address": "Archkogl 98, 8993 Grundlsee, Austria",
		"category_guid": "abcc76b0-4d5f-11ed-98da-000c29627401",
		"category_id": "002",
		"category_description": "Equine: Farm",
		"category_mapdescription": "Stable",
		"country_description": "Austria",
		"country_guid": "dc9cebb9-e7c4-11ec-98d7-000c29627401",
		"areacity_guid": "aa4857bf-7009-11ee-98df-000c29627401",
		"areacity_description": "Liezen",
		"areacity_latitude": 47.5676306677606,
		"areacity_longitude": 14.23522788737985,
		"ehoss_present": false
	},
	{
		"rawdata_guid": "59dcdd50-45a9-11ee-98df-000c29627401",
		"rawdata_code": "menschundpferdat",
		"rawdata_link": "menschundpferd.at",
		"rawdata_latitude": 47.93624360124427,
		"rawdata_longitude": 12.98998252674064,
		"rawdata_address": "Kroisbach 4, 5151 Nußdorf Am Haunsberg, Austria",
		"category_guid": "abcc76b0-4d5f-11ed-98da-000c29627401",
		"category_id": "002",
		"category_description": "Equine: Farm",
		"category_mapdescription": "Stable",
		"country_description": "Austria",
		"country_guid": "dc9cebb9-e7c4-11ec-98d7-000c29627401",
		"areacity_guid": "ebdef5a8-4437-11ee-98df-000c29627401",
		"areacity_description": "Salzburg",
		"areacity_latitude": 47.7999161381426,
		"areacity_longitude": 13.04526993488282,
		"ehoss_present": false
	},
	{
		"rawdata_guid": "6ae3704c-45a9-11ee-98df-000c29627401",
		"rawdata_code": "landhauspodessercoat",
		"rawdata_link": "landhaus.podesser.co.at",
		"rawdata_latitude": 46.8363404048195,
		"rawdata_longitude": 13.51048481506497,
		"rawdata_address": "Kötzing 30, 9871 Seeboden, Austria",
		"category_guid": "abcc76b0-4d5f-11ed-98da-000c29627401",
		"category_id": "002",
		"category_description": "Equine: Farm",
		"category_mapdescription": "Stable",
		"country_description": "Austria",
		"country_guid": "dc9cebb9-e7c4-11ec-98d7-000c29627401",
		"areacity_guid": "0d289fbc-443a-11ee-98df-000c29627401",
		"areacity_description": "Spittal an der Drau",
		"areacity_latitude": 46.79913645223598,
		"areacity_longitude": 13.4957354001506,
		"ehoss_present": false
	},
	{
		"rawdata_guid": "8305256d-45a9-11ee-98df-000c29627401",
		"rawdata_code": "wanderreitenat",
		"rawdata_link": "wanderreiten.at",
		"rawdata_latitude": 48.27685807513399,
		"rawdata_longitude": 13.36740981307751,
		"rawdata_address": "Voitshofen 4, 4984 Voitshofen, Austria",
		"category_guid": "abcc76b0-4d5f-11ed-98da-000c29627401",
		"category_id": "002",
		"category_description": "Equine: Farm",
		"category_mapdescription": "Stable",
		"country_description": "Austria",
		"country_guid": "dc9cebb9-e7c4-11ec-98d7-000c29627401",
		"areacity_guid": "925662a1-4440-11ee-98df-000c29627401",
		"areacity_description": "Ried im Innkreis",
		"areacity_latitude": 48.20723944611763,
		"areacity_longitude": 13.48607155156349,
		"ehoss_present": false
	},
	{
		"rawdata_guid": "a6bf4c6b-45a9-11ee-98df-000c29627401",
		"rawdata_code": "reitzentrumat",
		"rawdata_link": "reitzentrum.at",
		"rawdata_latitude": 47.17932044291593,
		"rawdata_longitude": 13.09278096904167,
		"rawdata_address": "Weinetsberg 32, 5630 Bad Hofgastein, Austria",
		"category_guid": "abcc76b0-4d5f-11ed-98da-000c29627401",
		"category_id": "002",
		"category_description": "Equine: Farm",
		"category_mapdescription": "Stable",
		"country_description": "Austria",
		"country_guid": "dc9cebb9-e7c4-11ec-98d7-000c29627401",
		"areacity_guid": "03ae5ee3-7017-11ee-98df-000c29627401",
		"areacity_description": "Bad Hofgastein",
		"areacity_latitude": 47.17158947539495,
		"areacity_longitude": 13.10265759218226,
		"ehoss_present": false
	},
	{
		"rawdata_guid": "b39d24de-45a9-11ee-98df-000c29627401",
		"rawdata_code": "reit-und-therapiezentrumat",
		"rawdata_link": "reit-und-therapiezentrum.at",
		"rawdata_latitude": 47.72241204874081,
		"rawdata_longitude": 16.01410851070042,
		"rawdata_address": "St. Johanner Str. 8, 2630 Ternitz, Austria",
		"category_guid": "abcc76b0-4d5f-11ed-98da-000c29627401",
		"category_id": "002",
		"category_description": "Equine: Farm",
		"category_mapdescription": "Stable",
		"country_description": "Austria",
		"country_guid": "dc9cebb9-e7c4-11ec-98d7-000c29627401",
		"areacity_guid": "a9095a52-443b-11ee-98df-000c29627401",
		"areacity_description": "Neunkirchen",
		"areacity_latitude": 47.72159504715854,
		"areacity_longitude": 16.08284506355442,
		"ehoss_present": false
	},
	{
		"rawdata_guid": "24485636-45aa-11ee-98df-000c29627401",
		"rawdata_code": "kindundpferdat",
		"rawdata_link": "kindundpferd.at",
		"rawdata_latitude": 46.72305661995351,
		"rawdata_longitude": 15.36704202484451,
		"rawdata_address": "Untergreith 51, 8453 St. Johann Im Saggautal, Austria",
		"category_guid": "abcc76b0-4d5f-11ed-98da-000c29627401",
		"category_id": "002",
		"category_description": "Equine: Farm",
		"category_mapdescription": "Stable",
		"country_description": "Austria",
		"country_guid": "dc9cebb9-e7c4-11ec-98d7-000c29627401",
		"areacity_guid": "8598a981-443e-11ee-98df-000c29627401",
		"areacity_description": "Leibnitz",
		"areacity_latitude": 46.78176825154562,
		"areacity_longitude": 15.53812072960881,
		"ehoss_present": false
	},
	{
		"rawdata_guid": "c1d9e59b-45aa-11ee-98df-000c29627401",
		"rawdata_code": "tatjana-goetzde",
		"rawdata_link": "tatjana-goetz.de",
		"rawdata_latitude": 49.31537982334707,
		"rawdata_longitude": 12.94525488668604,
		"rawdata_address": "Neumarker Str., 93458 Eschlkam, Germany",
		"category_guid": "abcc76b0-4d5f-11ed-98da-000c29627401",
		"category_id": "002",
		"category_description": "Equine: Farm",
		"category_mapdescription": "Stable",
		"country_description": "Germany",
		"country_guid": "dc9ceb90-e7c4-11ec-98d7-000c29627401",
		"areacity_guid": "70c1dc8e-6f91-11ee-98df-000c29627401",
		"areacity_description": "Bad Kötzting",
		"areacity_latitude": 49.17666645586787,
		"areacity_longitude": 12.8597633053224,
		"ehoss_present": false
	},
	{
		"rawdata_guid": "572ae6d9-45ab-11ee-98df-000c29627401",
		"rawdata_code": "lake-view-ranchat",
		"rawdata_link": "lake-view-ranch.at",
		"rawdata_latitude": 46.70472392991841,
		"rawdata_longitude": 14.04549627086112,
		"rawdata_address": "Fresen 3/A, 9552 Steindorf Am Ossiacher See, Austria",
		"category_guid": "abcc76b0-4d5f-11ed-98da-000c29627401",
		"category_id": "002",
		"category_description": "Equine: Farm",
		"category_mapdescription": "Stable",
		"country_description": "Austria",
		"country_guid": "dc9cebb9-e7c4-11ec-98d7-000c29627401",
		"areacity_guid": "254145b4-443a-11ee-98df-000c29627401",
		"areacity_description": "Feldkirchen in Karnten",
		"areacity_latitude": 46.72640319476666,
		"areacity_longitude": 14.09276035236241,
		"ehoss_present": false
	},
	{
		"rawdata_guid": "8c213501-45ab-11ee-98df-000c29627401",
		"rawdata_code": "stoeglehnercom",
		"rawdata_link": "stoeglehner.com",
		"rawdata_latitude": 48.55710238823649,
		"rawdata_longitude": 14.47594558258138,
		"rawdata_address": "Summerauer Str. 1, 4261 Rainbach Im Mühlkreis, Austria",
		"category_guid": "abcc76b0-4d5f-11ed-98da-000c29627401",
		"category_id": "002",
		"category_description": "Equine: Farm",
		"category_mapdescription": "Stable",
		"country_description": "Austria",
		"country_guid": "dc9cebb9-e7c4-11ec-98d7-000c29627401",
		"areacity_guid": "05d36f76-6fe8-11ee-98df-000c29627401",
		"areacity_description": "Freistadt",
		"areacity_latitude": 48.50220416592462,
		"areacity_longitude": 14.49991252554499,
		"ehoss_present": false
	},
	{
		"rawdata_guid": "9f6d76d7-45ab-11ee-98df-000c29627401",
		"rawdata_code": "coldcreekranchat",
		"rawdata_link": "coldcreekranch.at",
		"rawdata_latitude": 47.78630116675043,
		"rawdata_longitude": 13.24843671121274,
		"rawdata_address": "Kesselmannstraße 18, 5324 Wald, Austria",
		"category_guid": "abcc76b0-4d5f-11ed-98da-000c29627401",
		"category_id": "002",
		"category_description": "Equine: Farm",
		"category_mapdescription": "Stable",
		"country_description": "Austria",
		"country_guid": "dc9cebb9-e7c4-11ec-98d7-000c29627401",
		"areacity_guid": "ebdef5a8-4437-11ee-98df-000c29627401",
		"areacity_description": "Salzburg",
		"areacity_latitude": 47.7999161381426,
		"areacity_longitude": 13.04526993488282,
		"ehoss_present": false
	},
	{
		"rawdata_guid": "b26ffe89-45ab-11ee-98df-000c29627401",
		"rawdata_code": "reit-therapiezentrumat",
		"rawdata_link": "reit-therapiezentrum.at",
		"rawdata_latitude": 48.20812527099694,
		"rawdata_longitude": 16.54043572501349,
		"rawdata_address": "Eßlinger Hauptstraße 192, 1220 Wien, Austria",
		"category_guid": "abcc76b0-4d5f-11ed-98da-000c29627401",
		"category_id": "002",
		"category_description": "Equine: Farm",
		"category_mapdescription": "Stable",
		"country_description": "Austria",
		"country_guid": "dc9cebb9-e7c4-11ec-98d7-000c29627401",
		"areacity_guid": "a1ef621d-4434-11ee-98df-000c29627401",
		"areacity_description": "Vienna",
		"areacity_latitude": 48.20950404629586,
		"areacity_longitude": 16.37212874566252,
		"ehoss_present": false
	},
	{
		"rawdata_guid": "1cc6d656-45ac-11ee-98df-000c29627401",
		"rawdata_code": "horsecenter-austriaat",
		"rawdata_link": "horsecenter-austria.at",
		"rawdata_latitude": 48.18149769988469,
		"rawdata_longitude": 16.73916120465864,
		"rawdata_address": "15A, 2286 Straudorf, Austria",
		"category_guid": "abcc76b0-4d5f-11ed-98da-000c29627401",
		"category_id": "002",
		"category_description": "Equine: Farm",
		"category_mapdescription": "Stable",
		"country_description": "Austria",
		"country_guid": "dc9cebb9-e7c4-11ec-98d7-000c29627401",
		"areacity_guid": "a1ef621d-4434-11ee-98df-000c29627401",
		"areacity_description": "Vienna",
		"areacity_latitude": 48.20950404629586,
		"areacity_longitude": 16.37212874566252,
		"ehoss_present": false
	},
	{
		"rawdata_guid": "24901c98-45ac-11ee-98df-000c29627401",
		"rawdata_code": "zentaurusat",
		"rawdata_link": "zentaurus.at",
		"rawdata_latitude": 48.27392403158412,
		"rawdata_longitude": 13.36723944400526,
		"rawdata_address": "Voitshofen 35, 4984 Voitshofen, Austria",
		"category_guid": "abcc76b0-4d5f-11ed-98da-000c29627401",
		"category_id": "002",
		"category_description": "Equine: Farm",
		"category_mapdescription": "Stable",
		"country_description": "Austria",
		"country_guid": "dc9cebb9-e7c4-11ec-98d7-000c29627401",
		"areacity_guid": "925662a1-4440-11ee-98df-000c29627401",
		"areacity_description": "Ried im Innkreis",
		"areacity_latitude": 48.20723944611763,
		"areacity_longitude": 13.48607155156349,
		"ehoss_present": false
	},
	{
		"rawdata_guid": "dd4514f0-45ac-11ee-98df-000c29627401",
		"rawdata_code": "rainbow-ranchat",
		"rawdata_link": "rainbow-ranch.at",
		"rawdata_latitude": 48.51322852019064,
		"rawdata_longitude": 15.98967787105399,
		"rawdata_address": "Rainbow Ranch, 3701 Oberthern, Austria",
		"category_guid": "abcc76b0-4d5f-11ed-98da-000c29627401",
		"category_id": "002",
		"category_description": "Equine: Farm",
		"category_mapdescription": "Stable",
		"country_description": "Austria",
		"country_guid": "dc9cebb9-e7c4-11ec-98d7-000c29627401",
		"areacity_guid": "f501bd02-443b-11ee-98df-000c29627401",
		"areacity_description": "Hollabrunn",
		"areacity_latitude": 48.56270967041423,
		"areacity_longitude": 16.07806831253607,
		"ehoss_present": false
	},
	{
		"rawdata_guid": "21193c03-45af-11ee-98df-000c29627401",
		"rawdata_code": "budjonnyeu",
		"rawdata_link": "budjonny.eu",
		"rawdata_latitude": 47.97809972775026,
		"rawdata_longitude": 13.66395938626072,
		"rawdata_address": "Schönberg 12, 4844 Regau, Austria",
		"category_guid": "abcc76b0-4d5f-11ed-98da-000c29627401",
		"category_id": "002",
		"category_description": "Equine: Farm",
		"category_mapdescription": "Stable",
		"country_description": "Austria",
		"country_guid": "dc9cebb9-e7c4-11ec-98d7-000c29627401",
		"areacity_guid": "72cb1447-4440-11ee-98df-000c29627401",
		"areacity_description": "Vöcklabruck",
		"areacity_latitude": 48.00735774196377,
		"areacity_longitude": 13.6544766481814,
		"ehoss_present": false
	},
	{
		"rawdata_guid": "61916576-45af-11ee-98df-000c29627401",
		"rawdata_code": "rv-geigerat",
		"rawdata_link": "rv-geiger.at",
		"rawdata_latitude": 48.10666363901084,
		"rawdata_longitude": 14.86802267322004,
		"rawdata_address": "Weitenfeldstraße 37, 3300 Amstetten, Österreich",
		"category_guid": "abcc76b0-4d5f-11ed-98da-000c29627401",
		"category_id": "002",
		"category_description": "Equine: Farm",
		"category_mapdescription": "Stable",
		"country_description": "Austria",
		"country_guid": "dc9cebb9-e7c4-11ec-98d7-000c29627401",
		"areacity_guid": "d99b2de2-443a-11ee-98df-000c29627401",
		"areacity_description": "Amstetten",
		"areacity_latitude": 48.12479550785213,
		"areacity_longitude": 14.87067264559686,
		"ehoss_present": false
	},
	{
		"rawdata_guid": "8ebfa09c-45af-11ee-98df-000c29627401",
		"rawdata_code": "mischingerhofat",
		"rawdata_link": "mischingerhof.at",
		"rawdata_latitude": 48.1904405728403,
		"rawdata_longitude": 14.25881744024094,
		"rawdata_address": "Bahnhofstraße 12, 4053 Ansfelden, Austria",
		"category_guid": "abcc76b0-4d5f-11ed-98da-000c29627401",
		"category_id": "002",
		"category_description": "Equine: Farm",
		"category_mapdescription": "Stable",
		"country_description": "Austria",
		"country_guid": "dc9cebb9-e7c4-11ec-98d7-000c29627401",
		"areacity_guid": "a29e0c2d-4439-11ee-98df-000c29627401",
		"areacity_description": "Traun",
		"areacity_latitude": 48.22126210382047,
		"areacity_longitude": 14.23758877710949,
		"ehoss_present": false
	},
	{
		"rawdata_guid": "c2b0cf96-45af-11ee-98df-000c29627401",
		"rawdata_code": "morbitzercc",
		"rawdata_link": "morbitzer.cc",
		"rawdata_latitude": 48.24634129826531,
		"rawdata_longitude": 14.33327395373392,
		"rawdata_address": "Ebelsberger Schloßweg 22 A, 4030 Linz, Austria",
		"category_guid": "abcc76b0-4d5f-11ed-98da-000c29627401",
		"category_id": "002",
		"category_description": "Equine: Farm",
		"category_mapdescription": "Stable",
		"country_description": "Austria",
		"country_guid": "dc9cebb9-e7c4-11ec-98d7-000c29627401",
		"areacity_guid": "ac12a392-4437-11ee-98df-000c29627401",
		"areacity_description": "Linz",
		"areacity_latitude": 48.30416376654945,
		"areacity_longitude": 14.28861527960176,
		"ehoss_present": false
	},
	{
		"rawdata_guid": "fc27e845-45af-11ee-98df-000c29627401",
		"rawdata_code": "sportpferde-gumprechtat",
		"rawdata_link": "sportpferde-gumprecht.at",
		"rawdata_latitude": 48.21370336670084,
		"rawdata_longitude": 14.48225494907307,
		"rawdata_address": "Reintalgasse 20, 4470 Enns, Austria",
		"category_guid": "abcc76b0-4d5f-11ed-98da-000c29627401",
		"category_id": "002",
		"category_description": "Equine: Farm",
		"category_mapdescription": "Stable",
		"country_description": "Austria",
		"country_guid": "dc9cebb9-e7c4-11ec-98d7-000c29627401",
		"areacity_guid": "833433c5-4440-11ee-98df-000c29627401",
		"areacity_description": "Enns",
		"areacity_latitude": 48.21382044645531,
		"areacity_longitude": 14.47862913793003,
		"ehoss_present": false
	},
	{
		"rawdata_guid": "53239ef2-45b5-11ee-98df-000c29627401",
		"rawdata_code": "urfvbadischlat",
		"rawdata_link": "urfvbadischl.at",
		"rawdata_latitude": 47.70950912559682,
		"rawdata_longitude": 13.61727517270018,
		"rawdata_address": "Kaltenbachstraße 12A, 4820 Bad Ischl, Austria",
		"category_guid": "abcc76b0-4d5f-11ed-98da-000c29627401",
		"category_id": "002",
		"category_description": "Equine: Farm",
		"category_mapdescription": "Stable",
		"country_description": "Austria",
		"country_guid": "dc9cebb9-e7c4-11ec-98d7-000c29627401",
		"areacity_guid": "38ef22f4-4440-11ee-98df-000c29627401",
		"areacity_description": "Bad Ischl",
		"areacity_latitude": 47.71196008910385,
		"areacity_longitude": 13.62180672660102,
		"ehoss_present": false
	},
	{
		"rawdata_guid": "7b9b3bcb-45b5-11ee-98df-000c29627401",
		"rawdata_code": "klein-hoeragat",
		"rawdata_link": "klein-hoerag.at",
		"rawdata_latitude": 47.71131872462043,
		"rawdata_longitude": 13.56589614022394,
		"rawdata_address": "Lindaustraße 105, 4820 Bad Ischl, Austria",
		"category_guid": "abcc76b0-4d5f-11ed-98da-000c29627401",
		"category_id": "002",
		"category_description": "Equine: Farm",
		"category_mapdescription": "Stable",
		"country_description": "Austria",
		"country_guid": "dc9cebb9-e7c4-11ec-98d7-000c29627401",
		"areacity_guid": "ebdef5a8-4437-11ee-98df-000c29627401",
		"areacity_description": "Salzburg",
		"areacity_latitude": 47.7999161381426,
		"areacity_longitude": 13.04526993488282,
		"ehoss_present": false
	},
	{
		"rawdata_guid": "043f71c2-45b6-11ee-98df-000c29627401",
		"rawdata_code": "galoppy-kidsat",
		"rawdata_link": "galoppy-kids.at",
		"rawdata_latitude": 48.03207924017406,
		"rawdata_longitude": 13.97036135539814,
		"rawdata_address": "Ittensam 11, 4653 Ittensam, Austria",
		"category_guid": "abcc76b0-4d5f-11ed-98da-000c29627401",
		"category_id": "002",
		"category_description": "Equine: Farm",
		"category_mapdescription": "Stable",
		"country_description": "Austria",
		"country_guid": "dc9cebb9-e7c4-11ec-98d7-000c29627401",
		"areacity_guid": "c195376e-6f81-11ee-98df-000c29627401",
		"areacity_description": "Vorchdorf",
		"areacity_latitude": 48.00415891925747,
		"areacity_longitude": 13.92477466984368,
		"ehoss_present": false
	},
	{
		"rawdata_guid": "6c91863e-45b6-11ee-98df-000c29627401",
		"rawdata_code": "pferdebetrieb-adlsteinde",
		"rawdata_link": "pferdebetrieb-adlstein.de",
		"rawdata_latitude": 48.9732399712314,
		"rawdata_longitude": 11.93840082677757,
		"rawdata_address": "Adlstein 7, 93161 Sinzing, Germany",
		"category_guid": "abcc76b0-4d5f-11ed-98da-000c29627401",
		"category_id": "002",
		"category_description": "Equine: Farm",
		"category_mapdescription": "Stable",
		"country_description": "Germany",
		"country_guid": "dc9ceb90-e7c4-11ec-98d7-000c29627401",
		"areacity_guid": "5c54c7e1-6f86-11ee-98df-000c29627401",
		"areacity_description": "Regensburg",
		"areacity_latitude": 49.01416663580152,
		"areacity_longitude": 12.10275970812198,
		"ehoss_present": false
	},
	{
		"rawdata_guid": "89d9e618-45b6-11ee-98df-000c29627401",
		"rawdata_code": "pferdesport-ooeat",
		"rawdata_link": "pferdesport-ooe.at",
		"rawdata_latitude": 46.62083254626473,
		"rawdata_longitude": 14.27676365134814,
		"rawdata_address": "Anzengruberstraße 37, 9020 Klagenfurt Am Wörthersee, Austria",
		"category_guid": "abcc76b0-4d5f-11ed-98da-000c29627401",
		"category_id": "002",
		"category_description": "Equine: Farm",
		"category_mapdescription": "Stable",
		"country_description": "Austria",
		"country_guid": "dc9cebb9-e7c4-11ec-98d7-000c29627401",
		"areacity_guid": "2aa84993-4438-11ee-98df-000c29627401",
		"areacity_description": "Klagenfurt",
		"areacity_latitude": 46.62618132575445,
		"areacity_longitude": 14.31067222992787,
		"ehoss_present": false
	},
	{
		"rawdata_guid": "a5715219-45b6-11ee-98df-000c29627401",
		"rawdata_code": "pferde-pension-kellerde",
		"rawdata_link": "pferde-pension-keller.de",
		"rawdata_latitude": 47.60059070227791,
		"rawdata_longitude": 7.75601549615856,
		"rawdata_address": "Schloßgartenstraße 18, 79618 Rheinfelden (Baden), Germany",
		"category_guid": "abcc76b0-4d5f-11ed-98da-000c29627401",
		"category_id": "002",
		"category_description": "Equine: Farm",
		"category_mapdescription": "Stable",
		"country_description": "Germany",
		"country_guid": "dc9ceb90-e7c4-11ec-98d7-000c29627401",
		"areacity_guid": "39343da9-70c4-11ee-98df-000c29627401",
		"areacity_description": "Rheinfelden",
		"areacity_latitude": 47.56056796927371,
		"areacity_longitude": 7.78660160779091,
		"ehoss_present": false
	},
	{
		"rawdata_guid": "84bdab2e-45b7-11ee-98df-000c29627401",
		"rawdata_code": "kiebitzhofat",
		"rawdata_link": "kiebitzhof.at",
		"rawdata_latitude": 47.98119053136735,
		"rawdata_longitude": 16.26861207976321,
		"rawdata_address": "Haidhofstraße 80, 2500 Baden, Austria",
		"category_guid": "abcc76b0-4d5f-11ed-98da-000c29627401",
		"category_id": "002",
		"category_description": "Equine: Farm",
		"category_mapdescription": "Stable",
		"country_description": "Austria",
		"country_guid": "dc9cebb9-e7c4-11ec-98d7-000c29627401",
		"areacity_guid": "a1ef621d-4434-11ee-98df-000c29627401",
		"areacity_description": "Vienna",
		"areacity_latitude": 48.20950404629586,
		"areacity_longitude": 16.37212874566252,
		"ehoss_present": false
	},
	{
		"rawdata_guid": "a0cfedb9-45b7-11ee-98df-000c29627401",
		"rawdata_code": "desperadoranchcoat",
		"rawdata_link": "desperadoranch.co.at",
		"rawdata_latitude": 47.95934466992372,
		"rawdata_longitude": 16.24073850752315,
		"rawdata_address": "Augustrußkohlstraße 17, 2542 Kottingbrunn, Austria",
		"category_guid": "abcc76b0-4d5f-11ed-98da-000c29627401",
		"category_id": "002",
		"category_description": "Equine: Farm",
		"category_mapdescription": "Stable",
		"country_description": "Austria",
		"country_guid": "dc9cebb9-e7c4-11ec-98d7-000c29627401",
		"areacity_guid": "bea39516-443b-11ee-98df-000c29627401",
		"areacity_description": "Bad Voslau",
		"areacity_latitude": 47.96442247513408,
		"areacity_longitude": 16.21354202590834,
		"ehoss_present": false
	},
	{
		"rawdata_guid": "7a2c9132-45b8-11ee-98df-000c29627401",
		"rawdata_code": "pferdebauernhof-esslingat",
		"rawdata_link": "pferdebauernhof-essling.at",
		"rawdata_latitude": 48.21616250866689,
		"rawdata_longitude": 16.52208655373297,
		"rawdata_address": "Simonsgasse 3, 1220 Wien, Austria",
		"category_guid": "abcc76b0-4d5f-11ed-98da-000c29627401",
		"category_id": "002",
		"category_description": "Equine: Farm",
		"category_mapdescription": "Stable",
		"country_description": "Austria",
		"country_guid": "dc9cebb9-e7c4-11ec-98d7-000c29627401",
		"areacity_guid": "a1ef621d-4434-11ee-98df-000c29627401",
		"areacity_description": "Vienna",
		"areacity_latitude": 48.20950404629586,
		"areacity_longitude": 16.37212874566252,
		"ehoss_present": false
	},
	{
		"rawdata_guid": "85385685-45b8-11ee-98df-000c29627401",
		"rawdata_code": "berittat",
		"rawdata_link": "beritt.at",
		"rawdata_latitude": 48.00438099029238,
		"rawdata_longitude": 16.56585521122018,
		"rawdata_address": "Einzeilingneusiedlweg, 2434 Pischelsdorf, Austria",
		"category_guid": "abcc76b0-4d5f-11ed-98da-000c29627401",
		"category_id": "002",
		"category_description": "Equine: Farm",
		"category_mapdescription": "Stable",
		"country_description": "Austria",
		"country_guid": "dc9cebb9-e7c4-11ec-98d7-000c29627401",
		"areacity_guid": "a1ef621d-4434-11ee-98df-000c29627401",
		"areacity_description": "Vienna",
		"areacity_latitude": 48.20950404629586,
		"areacity_longitude": 16.37212874566252,
		"ehoss_present": false
	},
	{
		"rawdata_guid": "9212a8f1-45b8-11ee-98df-000c29627401",
		"rawdata_code": "damarishofjimdofreecom",
		"rawdata_link": "damarishof.jimdofree.com",
		"rawdata_latitude": 47.94973186111096,
		"rawdata_longitude": 16.45138682655995,
		"rawdata_address": "Unterwaltersdorfer Str. 99, 2443 Deutsch-Brodersdorf, Austria",
		"category_guid": "abcc76b0-4d5f-11ed-98da-000c29627401",
		"category_id": "002",
		"category_description": "Equine: Farm",
		"category_mapdescription": "Stable",
		"country_description": "Austria",
		"country_guid": "dc9cebb9-e7c4-11ec-98d7-000c29627401",
		"areacity_guid": "9446e3b4-443c-11ee-98df-000c29627401",
		"areacity_description": "Ebreichsdorf",
		"areacity_latitude": 47.96407067245661,
		"areacity_longitude": 16.40259065007459,
		"ehoss_present": false
	},
	{
		"rawdata_guid": "bf595055-45b9-11ee-98df-000c29627401",
		"rawdata_code": "pferd-laabenat",
		"rawdata_link": "pferd-laaben.at",
		"rawdata_latitude": 48.1577229124351,
		"rawdata_longitude": 15.94186658268373,
		"rawdata_address": "Westautobahn A1, 3033 Altlengbach, Austria",
		"category_guid": "abcc76b0-4d5f-11ed-98da-000c29627401",
		"category_id": "002",
		"category_description": "Equine: Farm",
		"category_mapdescription": "Stable",
		"country_description": "Austria",
		"country_guid": "dc9cebb9-e7c4-11ec-98d7-000c29627401",
		"areacity_guid": "11d178b3-6fed-11ee-98df-000c29627401",
		"areacity_description": "Neulengbach",
		"areacity_latitude": 48.19944064862037,
		"areacity_longitude": 15.90789173274643,
		"ehoss_present": false
	},
	{
		"rawdata_guid": "143af995-45ba-11ee-98df-000c29627401",
		"rawdata_code": "reitschuleat",
		"rawdata_link": "reitschule.at",
		"rawdata_latitude": 48.31296201261373,
		"rawdata_longitude": 16.51154163933806,
		"rawdata_address": "Am Wassergraben 1, 2201 Kapellerfeld, Austria",
		"category_guid": "abcc76b0-4d5f-11ed-98da-000c29627401",
		"category_id": "002",
		"category_description": "Equine: Farm",
		"category_mapdescription": "Stable",
		"country_description": "Austria",
		"country_guid": "dc9cebb9-e7c4-11ec-98d7-000c29627401",
		"areacity_guid": "a1ef621d-4434-11ee-98df-000c29627401",
		"areacity_description": "Vienna",
		"areacity_latitude": 48.20950404629586,
		"areacity_longitude": 16.37212874566252,
		"ehoss_present": false
	},
	{
		"rawdata_guid": "2b7fb659-45ba-11ee-98df-000c29627401",
		"rawdata_code": "pferderanchat",
		"rawdata_link": "pferderanch.at",
		"rawdata_latitude": 47.53247334632187,
		"rawdata_longitude": 16.39850587896161,
		"rawdata_address": "Hauptstraße 91, 7342 Kaisersdorf, Austria",
		"category_guid": "abcc76b0-4d5f-11ed-98da-000c29627401",
		"category_id": "002",
		"category_description": "Equine: Farm",
		"category_mapdescription": "Stable",
		"country_description": "Austria",
		"country_guid": "dc9cebb9-e7c4-11ec-98d7-000c29627401",
		"areacity_guid": "a9095a52-443b-11ee-98df-000c29627401",
		"areacity_description": "Neunkirchen",
		"areacity_latitude": 47.72159504715854,
		"areacity_longitude": 16.08284506355442,
		"ehoss_present": false
	},
	{
		"rawdata_guid": "383179f5-45ba-11ee-98df-000c29627401",
		"rawdata_code": "pony-crewat",
		"rawdata_link": "pony-crew.at",
		"rawdata_latitude": 48.07411617001014,
		"rawdata_longitude": 16.58897065569661,
		"rawdata_address": "Fischamender Str. 52, 2432 Schwadorf Bei Wien, Austria",
		"category_guid": "abcc76b0-4d5f-11ed-98da-000c29627401",
		"category_id": "002",
		"category_description": "Equine: Farm",
		"category_mapdescription": "Stable",
		"country_description": "Austria",
		"country_guid": "dc9cebb9-e7c4-11ec-98d7-000c29627401",
		"areacity_guid": "a1ef621d-4434-11ee-98df-000c29627401",
		"areacity_description": "Vienna",
		"areacity_latitude": 48.20950404629586,
		"areacity_longitude": 16.37212874566252,
		"ehoss_present": false
	},
	{
		"rawdata_guid": "68963ae0-45ba-11ee-98df-000c29627401",
		"rawdata_code": "reitclubat",
		"rawdata_link": "reitclub.at",
		"rawdata_latitude": 48.16086308038052,
		"rawdata_longitude": 16.11661474220702,
		"rawdata_address": "Josef Hutterer-Straße 34, 3012 Wolfsgraben, Austria",
		"category_guid": "abcc76b0-4d5f-11ed-98da-000c29627401",
		"category_id": "002",
		"category_description": "Equine: Farm",
		"category_mapdescription": "Stable",
		"country_description": "Austria",
		"country_guid": "dc9cebb9-e7c4-11ec-98d7-000c29627401",
		"areacity_guid": "a1ef621d-4434-11ee-98df-000c29627401",
		"areacity_description": "Vienna",
		"areacity_latitude": 48.20950404629586,
		"areacity_longitude": 16.37212874566252,
		"ehoss_present": false
	},
	{
		"rawdata_guid": "857accdf-45ba-11ee-98df-000c29627401",
		"rawdata_code": "problempferdeat",
		"rawdata_link": "problempferde.at",
		"rawdata_latitude": 48.5581565840251,
		"rawdata_longitude": 15.90440875386057,
		"rawdata_address": "Minichhofen 30, 3720 Minichhofen, Austria",
		"category_guid": "abcc76b0-4d5f-11ed-98da-000c29627401",
		"category_id": "002",
		"category_description": "Equine: Farm",
		"category_mapdescription": "Stable",
		"country_description": "Austria",
		"country_guid": "dc9cebb9-e7c4-11ec-98d7-000c29627401",
		"areacity_guid": "f501bd02-443b-11ee-98df-000c29627401",
		"areacity_description": "Hollabrunn",
		"areacity_latitude": 48.56270967041423,
		"areacity_longitude": 16.07806831253607,
		"ehoss_present": false
	},
	{
		"rawdata_guid": "7db3130b-45bb-11ee-98df-000c29627401",
		"rawdata_code": "reitverein-wiener-neustadtat",
		"rawdata_link": "reitverein-wiener-neustadt.at",
		"rawdata_latitude": 47.80546567964453,
		"rawdata_longitude": 16.2445398555724,
		"rawdata_address": "Reitverein, Günser Str. 1, Wiener Neustadt, Austria",
		"category_guid": "abcc76b0-4d5f-11ed-98da-000c29627401",
		"category_id": "002",
		"category_description": "Equine: Farm",
		"category_mapdescription": "Stable",
		"country_description": "Austria",
		"country_guid": "dc9cebb9-e7c4-11ec-98d7-000c29627401",
		"areacity_guid": "b87a5a02-4438-11ee-98df-000c29627401",
		"areacity_description": "Wiener Neustadt",
		"areacity_latitude": 47.80450709505082,
		"areacity_longitude": 16.23543940621163,
		"ehoss_present": false
	},
	{
		"rawdata_guid": "ac58de00-45bb-11ee-98df-000c29627401",
		"rawdata_code": "first-viewat",
		"rawdata_link": "first-view.at",
		"rawdata_latitude": 48.0346350666261,
		"rawdata_longitude": 16.38418738720091,
		"rawdata_address": "Himbergerstraße 42, 2482 Münchendorf, Austria",
		"category_guid": "abcc76b0-4d5f-11ed-98da-000c29627401",
		"category_id": "002",
		"category_description": "Equine: Farm",
		"category_mapdescription": "Stable",
		"country_description": "Austria",
		"country_guid": "dc9cebb9-e7c4-11ec-98d7-000c29627401",
		"areacity_guid": "a1ef621d-4434-11ee-98df-000c29627401",
		"areacity_description": "Vienna",
		"areacity_latitude": 48.20950404629586,
		"areacity_longitude": 16.37212874566252,
		"ehoss_present": false
	},
	{
		"rawdata_guid": "bd799589-45bb-11ee-98df-000c29627401",
		"rawdata_code": "pferdehof-jauerlingat",
		"rawdata_link": "pferdehof-jauerling.at",
		"rawdata_latitude": 48.31305692441201,
		"rawdata_longitude": 15.307546855704,
		"rawdata_address": "Nonnersdorf 1, 3643 Nonnersdorf, Austria",
		"category_guid": "abcc76b0-4d5f-11ed-98da-000c29627401",
		"category_id": "002",
		"category_description": "Equine: Farm",
		"category_mapdescription": "Stable",
		"country_description": "Austria",
		"country_guid": "dc9cebb9-e7c4-11ec-98d7-000c29627401",
		"areacity_guid": "b5731679-4439-11ee-98df-000c29627401",
		"areacity_description": "Krems an der Donau",
		"areacity_latitude": 48.41076996205758,
		"areacity_longitude": 15.60229055971455,
		"ehoss_present": false
	},
	{
		"rawdata_guid": "088bae2f-45bc-11ee-98df-000c29627401",
		"rawdata_code": "reitclubdonauat",
		"rawdata_link": "reitclubdonau.at",
		"rawdata_latitude": 48.19152729418335,
		"rawdata_longitude": 16.45322036919257,
		"rawdata_address": "Hafenzufahrtsstraße 60, 1020 Wien, Austria",
		"category_guid": "abcc76b0-4d5f-11ed-98da-000c29627401",
		"category_id": "002",
		"category_description": "Equine: Farm",
		"category_mapdescription": "Stable",
		"country_description": "Austria",
		"country_guid": "dc9cebb9-e7c4-11ec-98d7-000c29627401",
		"areacity_guid": "a1ef621d-4434-11ee-98df-000c29627401",
		"areacity_description": "Vienna",
		"areacity_latitude": 48.20950404629586,
		"areacity_longitude": 16.37212874566252,
		"ehoss_present": false
	},
	{
		"rawdata_guid": "322df63d-45bc-11ee-98df-000c29627401",
		"rawdata_code": "rc-donaustadtcom",
		"rawdata_link": "rc-donaustadt.com",
		"rawdata_latitude": 48.27064234875084,
		"rawdata_longitude": 16.48259369617947,
		"rawdata_address": "Campingplatzweg 31, 1220 Wien, Austria",
		"category_guid": "abcc76b0-4d5f-11ed-98da-000c29627401",
		"category_id": "002",
		"category_description": "Equine: Farm",
		"category_mapdescription": "Stable",
		"country_description": "Austria",
		"country_guid": "dc9cebb9-e7c4-11ec-98d7-000c29627401",
		"areacity_guid": "a1ef621d-4434-11ee-98df-000c29627401",
		"areacity_description": "Vienna",
		"areacity_latitude": 48.20950404629586,
		"areacity_longitude": 16.37212874566252,
		"ehoss_present": false
	},
	{
		"rawdata_guid": "5da506d3-45bc-11ee-98df-000c29627401",
		"rawdata_code": "mbtkat",
		"rawdata_link": "mbtk.at",
		"rawdata_latitude": 47.93402286400755,
		"rawdata_longitude": 16.49456351838292,
		"rawdata_address": "Wolfsgraben 12, 2443 Gemeinde Leithaprodersdorf, Austria",
		"category_guid": "abcc76b0-4d5f-11ed-98da-000c29627401",
		"category_id": "002",
		"category_description": "Equine: Farm",
		"category_mapdescription": "Stable",
		"country_description": "Austria",
		"country_guid": "dc9cebb9-e7c4-11ec-98d7-000c29627401",
		"areacity_guid": "a1ef621d-4434-11ee-98df-000c29627401",
		"areacity_description": "Vienna",
		"areacity_latitude": 48.20950404629586,
		"areacity_longitude": 16.37212874566252,
		"ehoss_present": false
	},
	{
		"rawdata_guid": "8b3c640c-45bc-11ee-98df-000c29627401",
		"rawdata_code": "rfv-donau-auenat",
		"rawdata_link": "rfv-donau-auen.at",
		"rawdata_latitude": 48.19352416380225,
		"rawdata_longitude": 16.46998645373223,
		"rawdata_address": "Dechantweg 8C, 1220 Wien, Austria",
		"category_guid": "abcc76b0-4d5f-11ed-98da-000c29627401",
		"category_id": "002",
		"category_description": "Equine: Farm",
		"category_mapdescription": "Stable",
		"country_description": "Austria",
		"country_guid": "dc9cebb9-e7c4-11ec-98d7-000c29627401",
		"areacity_guid": "a1ef621d-4434-11ee-98df-000c29627401",
		"areacity_description": "Vienna",
		"areacity_latitude": 48.20950404629586,
		"areacity_longitude": 16.37212874566252,
		"ehoss_present": false
	},
	{
		"rawdata_guid": "963777b2-45bc-11ee-98df-000c29627401",
		"rawdata_code": "equisportat",
		"rawdata_link": "equisport.at",
		"rawdata_latitude": 48.06450606718262,
		"rawdata_longitude": 16.35369714005774,
		"rawdata_address": "Münchendorfer Str. 5, 2361 Laxenburg, Austria",
		"category_guid": "abcc76b0-4d5f-11ed-98da-000c29627401",
		"category_id": "002",
		"category_description": "Equine: Farm",
		"category_mapdescription": "Stable",
		"country_description": "Austria",
		"country_guid": "dc9cebb9-e7c4-11ec-98d7-000c29627401",
		"areacity_guid": "a1ef621d-4434-11ee-98df-000c29627401",
		"areacity_description": "Vienna",
		"areacity_latitude": 48.20950404629586,
		"areacity_longitude": 16.37212874566252,
		"ehoss_present": false
	},
	{
		"rawdata_guid": "a12dc7fc-45bc-11ee-98df-000c29627401",
		"rawdata_code": "schottenhofat",
		"rawdata_link": "schottenhof.at",
		"rawdata_latitude": 48.23128592590671,
		"rawdata_longitude": 16.25794062698239,
		"rawdata_address": "Amundsenstraße 5, 1140 Wien, Österreich",
		"category_guid": "abcc76b0-4d5f-11ed-98da-000c29627401",
		"category_id": "002",
		"category_description": "Equine: Farm",
		"category_mapdescription": "Stable",
		"country_description": "Austria",
		"country_guid": "dc9cebb9-e7c4-11ec-98d7-000c29627401",
		"areacity_guid": "a1ef621d-4434-11ee-98df-000c29627401",
		"areacity_description": "Vienna",
		"areacity_latitude": 48.20950404629586,
		"areacity_longitude": 16.37212874566252,
		"ehoss_present": false
	},
	{
		"rawdata_guid": "aa2a9f66-45bc-11ee-98df-000c29627401",
		"rawdata_code": "rkwienerwaldat",
		"rawdata_link": "rkwienerwald.at",
		"rawdata_latitude": 48.13399766793303,
		"rawdata_longitude": 16.15049042860155,
		"rawdata_address": "Apfelbrunngraben 75, 2384 Breitenfurt Bei Wien, Austria",
		"category_guid": "abcc76b0-4d5f-11ed-98da-000c29627401",
		"category_id": "002",
		"category_description": "Equine: Farm",
		"category_mapdescription": "Stable",
		"country_description": "Austria",
		"country_guid": "dc9cebb9-e7c4-11ec-98d7-000c29627401",
		"areacity_guid": "a1ef621d-4434-11ee-98df-000c29627401",
		"areacity_description": "Vienna",
		"areacity_latitude": 48.20950404629586,
		"areacity_longitude": 16.37212874566252,
		"ehoss_present": false
	},
	{
		"rawdata_guid": "1877ba5b-45bd-11ee-98df-000c29627401",
		"rawdata_code": "pferdehof-groissstadtausstellungat",
		"rawdata_link": "pferdehof-groiss.stadtausstellung.at",
		"rawdata_latitude": 47.89147417262463,
		"rawdata_longitude": 16.21843563600846,
		"rawdata_address": "Badenerstraße 39, 2751 Matzendorf, Austria",
		"category_guid": "abcc76b0-4d5f-11ed-98da-000c29627401",
		"category_id": "002",
		"category_description": "Equine: Farm",
		"category_mapdescription": "Stable",
		"country_description": "Austria",
		"country_guid": "dc9cebb9-e7c4-11ec-98d7-000c29627401",
		"areacity_guid": "b87a5a02-4438-11ee-98df-000c29627401",
		"areacity_description": "Wiener Neustadt",
		"areacity_latitude": 47.80450709505082,
		"areacity_longitude": 16.23543940621163,
		"ehoss_present": false
	},
	{
		"rawdata_guid": "5dd046d5-45bf-11ee-98df-000c29627401",
		"rawdata_code": "pferde-hunde-physiojimdofreecom",
		"rawdata_link": "pferde-hunde-physio.jimdofree.com",
		"rawdata_latitude": 47.62880220659098,
		"rawdata_longitude": 12.96159824642595,
		"rawdata_address": "Silbergstraße 77, 83483 Bischofswiesen, Germany",
		"category_guid": "abcc76b0-4d5f-11ed-98da-000c29627401",
		"category_id": "002",
		"category_description": "Equine: Farm",
		"category_mapdescription": "Stable",
		"country_description": "Germany",
		"country_guid": "dc9ceb90-e7c4-11ec-98d7-000c29627401",
		"areacity_guid": "3b96bc04-70c3-11ee-98df-000c29627401",
		"areacity_description": "Berchtesgaden",
		"areacity_latitude": 47.6305241856147,
		"areacity_longitude": 13.00020902439393,
		"ehoss_present": false
	},
	{
		"rawdata_guid": "b159fcb6-45bf-11ee-98df-000c29627401",
		"rawdata_code": "reitanlage-braunde",
		"rawdata_link": "reitanlage-braun.de",
		"rawdata_latitude": 50.76815019934776,
		"rawdata_longitude": 6.15773461160378,
		"rawdata_address": "Kellershaustraße 40, 52078 Aachen, Germany",
		"category_guid": "abcc76b0-4d5f-11ed-98da-000c29627401",
		"category_id": "002",
		"category_description": "Equine: Farm",
		"category_mapdescription": "Stable",
		"country_description": "Germany",
		"country_guid": "dc9ceb90-e7c4-11ec-98d7-000c29627401",
		"areacity_guid": "12225760-70d0-11ee-98df-000c29627401",
		"areacity_description": "Aachen",
		"areacity_latitude": 50.77505863709578,
		"areacity_longitude": 6.08484426947349,
		"ehoss_present": false
	},
	{
		"rawdata_guid": "eb296039-45bf-11ee-98df-000c29627401",
		"rawdata_code": "pferdehof-weilerat",
		"rawdata_link": "pferdehof-weiler.at",
		"rawdata_latitude": 47.2976423188026,
		"rawdata_longitude": 9.64780546916463,
		"rawdata_address": "Feldstraße 13, 6837 Weiler, Austria",
		"category_guid": "abcc76b0-4d5f-11ed-98da-000c29627401",
		"category_id": "002",
		"category_description": "Equine: Farm",
		"category_mapdescription": "Stable",
		"country_description": "Austria",
		"country_guid": "dc9cebb9-e7c4-11ec-98d7-000c29627401",
		"areacity_guid": "6125ded8-4441-11ee-98df-000c29627401",
		"areacity_description": "Rankweil",
		"areacity_latitude": 47.27100511187339,
		"areacity_longitude": 9.6413963177173,
		"ehoss_present": false
	},
	{
		"rawdata_guid": "f6247c44-45bf-11ee-98df-000c29627401",
		"rawdata_code": "t-ranchat",
		"rawdata_link": "t-ranch.at",
		"rawdata_latitude": 47.39681252161254,
		"rawdata_longitude": 9.70105799770546,
		"rawdata_address": "Im Grund 4, 6850 Dornbirn, Austria",
		"category_guid": "abcc76b0-4d5f-11ed-98da-000c29627401",
		"category_id": "002",
		"category_description": "Equine: Farm",
		"category_mapdescription": "Stable",
		"country_description": "Austria",
		"country_guid": "dc9cebb9-e7c4-11ec-98d7-000c29627401",
		"areacity_guid": "990902fa-4438-11ee-98df-000c29627401",
		"areacity_description": "Dornbirn",
		"areacity_latitude": 47.41277892868037,
		"areacity_longitude": 9.74659820622311,
		"ehoss_present": false
	},
	{
		"rawdata_guid": "58a01add-45c0-11ee-98df-000c29627401",
		"rawdata_code": "luckyhorse-ranchcom",
		"rawdata_link": "luckyhorse-ranch.com",
		"rawdata_latitude": 47.2060837028261,
		"rawdata_longitude": 9.77249008438766,
		"rawdata_address": "Quadernweg 5, 6712 Thüringen, Austria",
		"category_guid": "abcc76b0-4d5f-11ed-98da-000c29627401",
		"category_id": "002",
		"category_description": "Equine: Farm",
		"category_mapdescription": "Stable",
		"country_description": "Austria",
		"country_guid": "dc9cebb9-e7c4-11ec-98d7-000c29627401",
		"areacity_guid": "3202f517-4441-11ee-98df-000c29627401",
		"areacity_description": "Bludenz",
		"areacity_latitude": 47.15671303567059,
		"areacity_longitude": 9.82116881205024,
		"ehoss_present": false
	},
	{
		"rawdata_guid": "3bd471b7-45c1-11ee-98df-000c29627401",
		"rawdata_code": "feldli-ranchch",
		"rawdata_link": "feldli-ranch.ch",
		"rawdata_latitude": 46.95714972963487,
		"rawdata_longitude": 8.34830388419662,
		"rawdata_address": "Gotthardlistrasse 41, 6372 Ennetmoos, Switzerland",
		"category_guid": "abcc76b0-4d5f-11ed-98da-000c29627401",
		"category_id": "002",
		"category_description": "Equine: Farm",
		"category_mapdescription": "Stable",
		"country_description": "Switzerland",
		"country_guid": "07de3e24-e7cb-11ec-98d7-000c29627401",
		"areacity_guid": "93865193-6f7e-11ee-98df-000c29627401",
		"areacity_description": "Stans",
		"areacity_latitude": 46.95725062213263,
		"areacity_longitude": 8.36581802619473,
		"ehoss_present": false
	},
	{
		"rawdata_guid": "5664855e-45c1-11ee-98df-000c29627401",
		"rawdata_code": "1psch",
		"rawdata_link": "1ps.ch",
		"rawdata_latitude": 47.32596593871728,
		"rawdata_longitude": 8.11124651119689,
		"rawdata_address": "Feldmatte 5, 5726 Unterkulm, Switzerland",
		"category_guid": "abcc76b0-4d5f-11ed-98da-000c29627401",
		"category_id": "002",
		"category_description": "Equine: Farm",
		"category_mapdescription": "Stable",
		"country_description": "Switzerland",
		"country_guid": "07de3e24-e7cb-11ec-98d7-000c29627401",
		"areacity_guid": "25ec1379-6f73-11ee-98df-000c29627401",
		"areacity_description": "Oberentfelden",
		"areacity_latitude": 47.35648418923714,
		"areacity_longitude": 8.04675285021764,
		"ehoss_present": false
	},
	{
		"rawdata_guid": "66567989-45c1-11ee-98df-000c29627401",
		"rawdata_code": "rgo-dielsdorfch",
		"rawdata_link": "rgo-dielsdorf.ch",
		"rawdata_latitude": 47.48535192202157,
		"rawdata_longitude": 8.46710989418077,
		"rawdata_address": "Neeracherstrasse 10, 8157 Dielsdorf, Switzerland",
		"category_guid": "abcc76b0-4d5f-11ed-98da-000c29627401",
		"category_id": "002",
		"category_description": "Equine: Farm",
		"category_mapdescription": "Stable",
		"country_description": "Switzerland",
		"country_guid": "07de3e24-e7cb-11ec-98d7-000c29627401",
		"areacity_guid": "fd92e702-7014-11ee-98df-000c29627401",
		"areacity_description": "Zürich",
		"areacity_latitude": 47.37810951110652,
		"areacity_longitude": 8.53707662433283,
		"ehoss_present": false
	},
	{
		"rawdata_guid": "70311555-45c1-11ee-98df-000c29627401",
		"rawdata_code": "westernridingch",
		"rawdata_link": "westernriding.ch",
		"rawdata_latitude": 47.33447673574469,
		"rawdata_longitude": 8.74210979770332,
		"rawdata_address": "Sulzbacherstrasse 83, 8610 Uster, Switzerland",
		"category_guid": "abcc76b0-4d5f-11ed-98da-000c29627401",
		"category_id": "002",
		"category_description": "Equine: Farm",
		"category_mapdescription": "Stable",
		"country_description": "Switzerland",
		"country_guid": "07de3e24-e7cb-11ec-98d7-000c29627401",
		"areacity_guid": "aaaf70e5-6f83-11ee-98df-000c29627401",
		"areacity_description": "Uster",
		"areacity_latitude": 47.34974242071485,
		"areacity_longitude": 8.71725584862339,
		"ehoss_present": false
	},
	{
		"rawdata_guid": "88612492-45c1-11ee-98df-000c29627401",
		"rawdata_code": "alteburgch",
		"rawdata_link": "alteburg.ch",
		"rawdata_latitude": 47.45462004425485,
		"rawdata_longitude": 9.46987191120127,
		"rawdata_address": "Altburg 62, 9033 Untereggen, Switzerland",
		"category_guid": "abcc76b0-4d5f-11ed-98da-000c29627401",
		"category_id": "002",
		"category_description": "Equine: Farm",
		"category_mapdescription": "Stable",
		"country_description": "Switzerland",
		"country_guid": "07de3e24-e7cb-11ec-98d7-000c29627401",
		"areacity_guid": "cff95e2d-6f72-11ee-98df-000c29627401",
		"areacity_description": "Rorschach",
		"areacity_latitude": 47.47808391147641,
		"areacity_longitude": 9.49189180068479,
		"ehoss_present": false
	},
	{
		"rawdata_guid": "9644267c-45c1-11ee-98df-000c29627401",
		"rawdata_code": "greussinghofat",
		"rawdata_link": "greussinghof.at",
		"rawdata_latitude": 47.47128149825679,
		"rawdata_longitude": 9.71817307090574,
		"rawdata_address": "Unterer Schützenweg 15, 6923 Lauterach, Austria",
		"category_guid": "abcc76b0-4d5f-11ed-98da-000c29627401",
		"category_id": "002",
		"category_description": "Equine: Farm",
		"category_mapdescription": "Stable",
		"country_description": "Austria",
		"country_guid": "dc9cebb9-e7c4-11ec-98d7-000c29627401",
		"areacity_guid": "83f47df4-4441-11ee-98df-000c29627401",
		"areacity_description": "Lauterach",
		"areacity_latitude": 47.474285463157,
		"areacity_longitude": 9.7282025840365,
		"ehoss_present": false
	},
	{
		"rawdata_guid": "ae463366-45c1-11ee-98df-000c29627401",
		"rawdata_code": "pferdeplauschch",
		"rawdata_link": "pferdeplausch.ch",
		"rawdata_latitude": 47.25071924047847,
		"rawdata_longitude": 8.74203604032729,
		"rawdata_address": "Oberredlikonerstrasse 10, 8712 Stäfa, Switzerland",
		"category_guid": "abcc76b0-4d5f-11ed-98da-000c29627401",
		"category_id": "002",
		"category_description": "Equine: Farm",
		"category_mapdescription": "Stable",
		"country_description": "Switzerland",
		"country_guid": "07de3e24-e7cb-11ec-98d7-000c29627401",
		"areacity_guid": "68626052-70c4-11ee-98df-000c29627401",
		"areacity_description": "Stäfa",
		"areacity_latitude": 47.23938864958797,
		"areacity_longitude": 8.73344895964704,
		"ehoss_present": false
	},
	{
		"rawdata_guid": "c25aeefc-45c1-11ee-98df-000c29627401",
		"rawdata_code": "reiten-erlebench",
		"rawdata_link": "reiten-erleben.ch",
		"rawdata_latitude": 47.42464785803727,
		"rawdata_longitude": 9.20481355382488,
		"rawdata_address": "Ufhofen 2191, 9203 Niederwil, Switzerland",
		"category_guid": "abcc76b0-4d5f-11ed-98da-000c29627401",
		"category_id": "002",
		"category_description": "Equine: Farm",
		"category_mapdescription": "Stable",
		"country_description": "Switzerland",
		"country_guid": "07de3e24-e7cb-11ec-98d7-000c29627401",
		"areacity_guid": "dc63ab8a-70d3-11ee-98df-000c29627401",
		"areacity_description": "Gossau",
		"areacity_latitude": 47.41536541494961,
		"areacity_longitude": 9.24902133358436,
		"ehoss_present": false
	},
	{
		"rawdata_guid": "deaa13a6-45c1-11ee-98df-000c29627401",
		"rawdata_code": "ponyhof-biessenhofench",
		"rawdata_link": "ponyhof-biessenhofen.ch",
		"rawdata_latitude": 47.55027249964191,
		"rawdata_longitude": 9.26590149865856,
		"rawdata_address": "Underdorf 16, 8580 Biessenhofen, Switzerland",
		"category_guid": "abcc76b0-4d5f-11ed-98da-000c29627401",
		"category_id": "002",
		"category_description": "Equine: Farm",
		"category_mapdescription": "Stable",
		"country_description": "Switzerland",
		"country_guid": "07de3e24-e7cb-11ec-98d7-000c29627401",
		"areacity_guid": "ac54ce5e-70c8-11ee-98df-000c29627401",
		"areacity_description": "Amriswil",
		"areacity_latitude": 47.5458829621199,
		"areacity_longitude": 9.29649917520302,
		"ehoss_present": false
	},
	{
		"rawdata_guid": "ef5ac185-45c1-11ee-98df-000c29627401",
		"rawdata_code": "reiten-zürichch",
		"rawdata_link": "reiten-zürich.ch",
		"rawdata_latitude": 47.37689194218353,
		"rawdata_longitude": 8.62643096886939,
		"rawdata_address": "Bollenrütiweg 3, 8117 Fällanden, Switzerland",
		"category_guid": "abcc76b0-4d5f-11ed-98da-000c29627401",
		"category_id": "002",
		"category_description": "Equine: Farm",
		"category_mapdescription": "Stable",
		"country_description": "Switzerland",
		"country_guid": "07de3e24-e7cb-11ec-98d7-000c29627401",
		"areacity_guid": "78d1dd10-6f84-11ee-98df-000c29627401",
		"areacity_description": "Dübendorf",
		"areacity_latitude": 47.39681141753583,
		"areacity_longitude": 8.62037467149324,
		"ehoss_present": false
	},
	{
		"rawdata_guid": "46b470cc-45c2-11ee-98df-000c29627401",
		"rawdata_code": "reitverein-bohlingende",
		"rawdata_link": "reitverein-bohlingen.de",
		"rawdata_latitude": 47.72319407867735,
		"rawdata_longitude": 8.88973934310639,
		"rawdata_address": "Zum Espen 27, 78224 Singen (Hohentwiel), Germany",
		"category_guid": "abcc76b0-4d5f-11ed-98da-000c29627401",
		"category_id": "002",
		"category_description": "Equine: Farm",
		"category_mapdescription": "Stable",
		"country_description": "Germany",
		"country_guid": "dc9ceb90-e7c4-11ec-98d7-000c29627401",
		"areacity_guid": "9b223d93-7018-11ee-98df-000c29627401",
		"areacity_description": "Rielasingen-Worblingen",
		"areacity_latitude": 47.72833767568179,
		"areacity_longitude": 8.84204410140942,
		"ehoss_present": false
	},
	{
		"rawdata_guid": "bb127285-45c2-11ee-98df-000c29627401",
		"rawdata_code": "engadin-reitench",
		"rawdata_link": "engadin-reiten.ch",
		"rawdata_latitude": 46.49224709304844,
		"rawdata_longitude": 9.89590999767466,
		"rawdata_address": "Cuntschett 9, 7504 Pontresina, Switzerland",
		"category_guid": "abcc76b0-4d5f-11ed-98da-000c29627401",
		"category_id": "002",
		"category_description": "Equine: Farm",
		"category_mapdescription": "Stable",
		"country_description": "Switzerland",
		"country_guid": "07de3e24-e7cb-11ec-98d7-000c29627401",
		"areacity_guid": "7f24d5fb-6f7c-11ee-98df-000c29627401",
		"areacity_description": "St. Moritz",
		"areacity_latitude": 46.49063532180403,
		"areacity_longitude": 9.83572092375974,
		"ehoss_present": false
	},
	{
		"rawdata_guid": "c73eb7c7-45c2-11ee-98df-000c29627401",
		"rawdata_code": "buchwald-ranchde",
		"rawdata_link": "buchwald-ranch.de",
		"rawdata_latitude": 47.68671777356217,
		"rawdata_longitude": 9.75766676888009,
		"rawdata_address": "Hatternholz Weg 15, 88239 Wangen Im Allgäu, Germany",
		"category_guid": "abcc76b0-4d5f-11ed-98da-000c29627401",
		"category_id": "002",
		"category_description": "Equine: Farm",
		"category_mapdescription": "Stable",
		"country_description": "Germany",
		"country_guid": "dc9ceb90-e7c4-11ec-98d7-000c29627401",
		"areacity_guid": "6892f9f7-6f70-11ee-98df-000c29627401",
		"areacity_description": "Wangen im Allgäu",
		"areacity_latitude": 47.68740139227674,
		"areacity_longitude": 9.82859728627132,
		"ehoss_present": false
	},
	{
		"rawdata_guid": "db98689e-45c2-11ee-98df-000c29627401",
		"rawdata_code": "reitenbachch",
		"rawdata_link": "reitenbach.ch",
		"rawdata_latitude": 47.40127572833283,
		"rawdata_longitude": 8.75541462683969,
		"rawdata_address": "Reitenbach 28, 8320 Fehraltorf, Switzerland",
		"category_guid": "abcc76b0-4d5f-11ed-98da-000c29627401",
		"category_id": "002",
		"category_description": "Equine: Farm",
		"category_mapdescription": "Stable",
		"country_description": "Switzerland",
		"country_guid": "07de3e24-e7cb-11ec-98d7-000c29627401",
		"areacity_guid": "6a9f907d-70d3-11ee-98df-000c29627401",
		"areacity_description": "Fehraltorf",
		"areacity_latitude": 47.38916442155632,
		"areacity_longitude": 8.7512905660641,
		"ehoss_present": false
	},
	{
		"rawdata_guid": "e58f9bd8-45c2-11ee-98df-000c29627401",
		"rawdata_code": "alpenrosebrandat",
		"rawdata_link": "alpenrosebrand.at",
		"rawdata_latitude": 47.09843168805738,
		"rawdata_longitude": 9.73502609116159,
		"rawdata_address": "Innertal 16, 6708 Brand, Austria",
		"category_guid": "abcc76b0-4d5f-11ed-98da-000c29627401",
		"category_id": "002",
		"category_description": "Equine: Farm",
		"category_mapdescription": "Stable",
		"country_description": "Austria",
		"country_guid": "dc9cebb9-e7c4-11ec-98d7-000c29627401",
		"areacity_guid": "3202f517-4441-11ee-98df-000c29627401",
		"areacity_description": "Bludenz",
		"areacity_latitude": 47.15671303567059,
		"areacity_longitude": 9.82116881205024,
		"ehoss_present": false
	},
	{
		"rawdata_guid": "342c96c8-45c3-11ee-98df-000c29627401",
		"rawdata_code": "pony1x1ch",
		"rawdata_link": "pony1x1.ch",
		"rawdata_latitude": 47.55899517339844,
		"rawdata_longitude": 9.11800071335227,
		"rawdata_address": "Fallenwiesenstrasse 10, 8570 Weinfelden, Switzerland",
		"category_guid": "abcc76b0-4d5f-11ed-98da-000c29627401",
		"category_id": "002",
		"category_description": "Equine: Farm",
		"category_mapdescription": "Stable",
		"country_description": "Switzerland",
		"country_guid": "07de3e24-e7cb-11ec-98d7-000c29627401",
		"areacity_guid": "f24e23e6-70c7-11ee-98df-000c29627401",
		"areacity_description": "Weinfelden",
		"areacity_latitude": 47.56627033370367,
		"areacity_longitude": 9.10813136271223,
		"ehoss_present": false
	},
	{
		"rawdata_guid": "76032e51-45c3-11ee-98df-000c29627401",
		"rawdata_code": "pferde-trainingch",
		"rawdata_link": "pferde-training.ch",
		"rawdata_latitude": 46.850917370186,
		"rawdata_longitude": 8.63855854031495,
		"rawdata_address": "Riedstrasse 22, 6467 Schattdorf, Switzerland",
		"category_guid": "abcc76b0-4d5f-11ed-98da-000c29627401",
		"category_id": "002",
		"category_description": "Equine: Farm",
		"category_mapdescription": "Stable",
		"country_description": "Switzerland",
		"country_guid": "07de3e24-e7cb-11ec-98d7-000c29627401",
		"areacity_guid": "46da764b-70c6-11ee-98df-000c29627401",
		"areacity_description": "Altdorf",
		"areacity_latitude": 46.88167774538472,
		"areacity_longitude": 8.63914846032975,
		"ehoss_present": false
	},
	{
		"rawdata_guid": "82a789c5-45c3-11ee-98df-000c29627401",
		"rawdata_code": "yfreitstallagch",
		"rawdata_link": "yfreitstallag.ch",
		"rawdata_latitude": 47.36200528118376,
		"rawdata_longitude": 8.73772445537505,
		"rawdata_address": "Fohlenweidstrasse 20, 8615 Wermatswil, Switzerland",
		"category_guid": "abcc76b0-4d5f-11ed-98da-000c29627401",
		"category_id": "002",
		"category_description": "Equine: Farm",
		"category_mapdescription": "Stable",
		"country_description": "Switzerland",
		"country_guid": "07de3e24-e7cb-11ec-98d7-000c29627401",
		"areacity_guid": "aaaf70e5-6f83-11ee-98df-000c29627401",
		"areacity_description": "Uster",
		"areacity_latitude": 47.34974242071485,
		"areacity_longitude": 8.71725584862339,
		"ehoss_present": false
	},
	{
		"rawdata_guid": "c3a91a19-45c3-11ee-98df-000c29627401",
		"rawdata_code": "pferdeparadies-haugde",
		"rawdata_link": "pferdeparadies-haug.de",
		"rawdata_latitude": 48.01925911590568,
		"rawdata_longitude": 8.65710985569478,
		"rawdata_address": "Haldenweg 1, 78607 Talheim, Germany",
		"category_guid": "abcc76b0-4d5f-11ed-98da-000c29627401",
		"category_id": "002",
		"category_description": "Equine: Farm",
		"category_mapdescription": "Stable",
		"country_description": "Germany",
		"country_guid": "dc9ceb90-e7c4-11ec-98d7-000c29627401",
		"areacity_guid": "d1489238-70c3-11ee-98df-000c29627401",
		"areacity_description": "Villingen-Schwenningen",
		"areacity_latitude": 48.06082680489416,
		"areacity_longitude": 8.45789364912156,
		"ehoss_present": false
	},
	{
		"rawdata_guid": "429233c2-45c4-11ee-98df-000c29627401",
		"rawdata_code": "pony-pferderanch-weissenseede",
		"rawdata_link": "pony-pferderanch-weissensee.de",
		"rawdata_latitude": 47.58739017829241,
		"rawdata_longitude": 10.62662071150183,
		"rawdata_address": "Brand 2, 87629 Füssen, Germany",
		"category_guid": "abcc76b0-4d5f-11ed-98da-000c29627401",
		"category_id": "002",
		"category_description": "Equine: Farm",
		"category_mapdescription": "Stable",
		"country_description": "Germany",
		"country_guid": "dc9ceb90-e7c4-11ec-98d7-000c29627401",
		"areacity_guid": "0bd1cae9-70cc-11ee-98df-000c29627401",
		"areacity_description": "Füssen",
		"areacity_latitude": 47.5699501759235,
		"areacity_longitude": 10.69861890526209,
		"ehoss_present": false
	},
	{
		"rawdata_guid": "6358b38c-45c4-11ee-98df-000c29627401",
		"rawdata_code": "taktgefuehlch",
		"rawdata_link": "taktgefuehl.ch",
		"rawdata_latitude": 47.22403603794371,
		"rawdata_longitude": 8.66305175767078,
		"rawdata_address": "Julius-Hauser-Weg 12, 8820 Wädenswil, Switzerland",
		"category_guid": "abcc76b0-4d5f-11ed-98da-000c29627401",
		"category_id": "002",
		"category_description": "Equine: Farm",
		"category_mapdescription": "Stable",
		"country_description": "Switzerland",
		"country_guid": "07de3e24-e7cb-11ec-98d7-000c29627401",
		"areacity_guid": "69d7ad59-6fe6-11ee-98df-000c29627401",
		"areacity_description": "Richterswil",
		"areacity_latitude": 47.20518395719725,
		"areacity_longitude": 8.70610063950683,
		"ehoss_present": false
	},
	{
		"rawdata_guid": "6ae48ea8-45c4-11ee-98df-000c29627401",
		"rawdata_code": "stall-mosercom",
		"rawdata_link": "stall-moser.com",
		"rawdata_latitude": 47.13227095593651,
		"rawdata_longitude": 8.69631521136753,
		"rawdata_address": "Aeussere Altmatt 19, 6418 Rothenthurm, Switzerland",
		"category_guid": "abcc76b0-4d5f-11ed-98da-000c29627401",
		"category_id": "002",
		"category_description": "Equine: Farm",
		"category_mapdescription": "Stable",
		"country_description": "Switzerland",
		"country_guid": "07de3e24-e7cb-11ec-98d7-000c29627401",
		"areacity_guid": "f456823e-6fe9-11ee-98df-000c29627401",
		"areacity_description": "Einsiedeln",
		"areacity_latitude": 47.12720528714138,
		"areacity_longitude": 8.74420425314543,
		"ehoss_present": false
	},
	{
		"rawdata_guid": "78fbf915-45c4-11ee-98df-000c29627401",
		"rawdata_code": "rzhat",
		"rawdata_link": "rzh.at",
		"rawdata_latitude": 47.48742532139319,
		"rawdata_longitude": 9.67618479974253,
		"rawdata_address": "Neulandstraße 50, 6971 Hard, Austria",
		"category_guid": "abcc76b0-4d5f-11ed-98da-000c29627401",
		"category_id": "002",
		"category_description": "Equine: Farm",
		"category_mapdescription": "Stable",
		"country_description": "Austria",
		"country_guid": "dc9cebb9-e7c4-11ec-98d7-000c29627401",
		"areacity_guid": "1d2ffa18-4439-11ee-98df-000c29627401",
		"areacity_description": "Bregenz",
		"areacity_latitude": 47.50121958347429,
		"areacity_longitude": 9.74255550145664,
		"ehoss_present": false
	},
	{
		"rawdata_guid": "9465c453-45c4-11ee-98df-000c29627401",
		"rawdata_code": "pferde-erlebnissech",
		"rawdata_link": "pferde-erlebnisse.ch",
		"rawdata_latitude": 47.42509255064611,
		"rawdata_longitude": 8.7060659978865,
		"rawdata_address": "Pfruendweid 1, 8307 Illnau-Effretikon, Switzerland",
		"category_guid": "abcc76b0-4d5f-11ed-98da-000c29627401",
		"category_id": "002",
		"category_description": "Equine: Farm",
		"category_mapdescription": "Stable",
		"country_description": "Switzerland",
		"country_guid": "07de3e24-e7cb-11ec-98d7-000c29627401",
		"areacity_guid": "7bda9363-7008-11ee-98df-000c29627401",
		"areacity_description": "Winterthur",
		"areacity_latitude": 47.49883071683797,
		"areacity_longitude": 8.72468918707735,
		"ehoss_present": false
	},
	{
		"rawdata_guid": "629dbabd-45c6-11ee-98df-000c29627401",
		"rawdata_code": "libertyranchch",
		"rawdata_link": "libertyranch.ch",
		"rawdata_latitude": 47.49609425026642,
		"rawdata_longitude": 8.08519523599458,
		"rawdata_address": "Oberdorf 9, 5076 Bözen, Switzerland",
		"category_guid": "abcc76b0-4d5f-11ed-98da-000c29627401",
		"category_id": "002",
		"category_description": "Equine: Farm",
		"category_mapdescription": "Stable",
		"country_description": "Switzerland",
		"country_guid": "07de3e24-e7cb-11ec-98d7-000c29627401",
		"areacity_guid": "7243268d-6ffc-11ee-98df-000c29627401",
		"areacity_description": "Brugg",
		"areacity_latitude": 47.48474024316106,
		"areacity_longitude": 8.2023550201682,
		"ehoss_present": false
	},
	{
		"rawdata_guid": "7844eafe-45c6-11ee-98df-000c29627401",
		"rawdata_code": "niederfeldch",
		"rawdata_link": "niederfeld.ch",
		"rawdata_latitude": 47.24988068484547,
		"rawdata_longitude": 8.75928964206168,
		"rawdata_address": "Lächlerstrasse 44, 8634 Hombrechtikon, Switzerland",
		"category_guid": "abcc76b0-4d5f-11ed-98da-000c29627401",
		"category_id": "002",
		"category_description": "Equine: Farm",
		"category_mapdescription": "Stable",
		"country_description": "Switzerland",
		"country_guid": "07de3e24-e7cb-11ec-98d7-000c29627401",
		"areacity_guid": "d2fd43de-7005-11ee-98df-000c29627401",
		"areacity_description": "Hombrechtikon",
		"areacity_latitude": 47.25328288521825,
		"areacity_longitude": 8.76975430675952,
		"ehoss_present": false
	},
	{
		"rawdata_guid": "81d82231-45c6-11ee-98df-000c29627401",
		"rawdata_code": "gentle-hill-ranchde",
		"rawdata_link": "gentle-hill-ranch.de",
		"rawdata_latitude": 47.6855362656535,
		"rawdata_longitude": 10.41318956888001,
		"rawdata_address": "Dorfstraße 12, 87471 Durach, Germany",
		"category_guid": "abcc76b0-4d5f-11ed-98da-000c29627401",
		"category_id": "002",
		"category_description": "Equine: Farm",
		"category_mapdescription": "Stable",
		"country_description": "Germany",
		"country_guid": "dc9ceb90-e7c4-11ec-98d7-000c29627401",
		"areacity_guid": "85d66509-6f82-11ee-98df-000c29627401",
		"areacity_description": "Kempten",
		"areacity_latitude": 47.7259741129414,
		"areacity_longitude": 10.31564712843144,
		"ehoss_present": false
	},
	{
		"rawdata_guid": "81d82232-45c6-11ee-98df-000c29627401",
		"rawdata_code": "engadin-riverranchch",
		"rawdata_link": "engadin-riverranch.ch",
		"rawdata_latitude": 46.58576576384969,
		"rawdata_longitude": 9.93883008233628,
		"rawdata_address": "Via Suot 35C, 7523 Madulain, Switzerland",
		"category_guid": "abcc76b0-4d5f-11ed-98da-000c29627401",
		"category_id": "002",
		"category_description": "Equine: Farm",
		"category_mapdescription": "Stable",
		"country_description": "Switzerland",
		"country_guid": "07de3e24-e7cb-11ec-98d7-000c29627401",
		"areacity_guid": "7f24d5fb-6f7c-11ee-98df-000c29627401",
		"areacity_description": "St. Moritz",
		"areacity_latitude": 46.49063532180403,
		"areacity_longitude": 9.83572092375974,
		"ehoss_present": false
	},
	{
		"rawdata_guid": "a5f40ac8-45c6-11ee-98df-000c29627401",
		"rawdata_code": "pferdezentrum-hochrheinde",
		"rawdata_link": "pferdezentrum-hochrhein.de",
		"rawdata_latitude": 47.62985897064004,
		"rawdata_longitude": 8.25317437274411,
		"rawdata_address": "Aussiedlerhof 3, 79761 Waldshut-Tiengen",
		"category_guid": "abcc76b0-4d5f-11ed-98da-000c29627401",
		"category_id": "002",
		"category_description": "Equine: Farm",
		"category_mapdescription": "Stable",
		"country_description": "Germany",
		"country_guid": "dc9ceb90-e7c4-11ec-98d7-000c29627401",
		"areacity_guid": "3e384ee1-6f7e-11ee-98df-000c29627401",
		"areacity_description": "Freiburg im Breisgau",
		"areacity_latitude": 47.99662601608374,
		"areacity_longitude": 7.84760568806219,
		"ehoss_present": false
	},
	{
		"rawdata_guid": "b8a3d8a3-45c6-11ee-98df-000c29627401",
		"rawdata_code": "stallschrackmannch",
		"rawdata_link": "stallschrackmann.ch",
		"rawdata_latitude": 47.49258526164092,
		"rawdata_longitude": 9.0293706267251,
		"rawdata_address": "Kirchstrasse 27, 9553 Bettwiesen, Switzerland",
		"category_guid": "abcc76b0-4d5f-11ed-98da-000c29627401",
		"category_id": "002",
		"category_description": "Equine: Farm",
		"category_mapdescription": "Stable",
		"country_description": "Switzerland",
		"country_guid": "07de3e24-e7cb-11ec-98d7-000c29627401",
		"areacity_guid": "1d04061a-6f85-11ee-98df-000c29627401",
		"areacity_description": "Wil",
		"areacity_latitude": 47.46504848189733,
		"areacity_longitude": 9.04532345011894,
		"ehoss_present": false
	},
	{
		"rawdata_guid": "3066728b-45c8-11ee-98df-000c29627401",
		"rawdata_code": "niederbayernalmde",
		"rawdata_link": "niederbayernalm.de",
		"rawdata_latitude": 48.30612409480975,
		"rawdata_longitude": 13.08630373558187,
		"rawdata_address": "Kaltenöd 1, 94166 Stubenberg, Germany",
		"category_guid": "abcc76b0-4d5f-11ed-98da-000c29627401",
		"category_id": "002",
		"category_description": "Equine: Farm",
		"category_mapdescription": "Stable",
		"country_description": "Germany",
		"country_guid": "dc9ceb90-e7c4-11ec-98d7-000c29627401",
		"areacity_guid": "8c79cab9-7005-11ee-98df-000c29627401",
		"areacity_description": "Pfarrkirchen",
		"areacity_latitude": 48.43145510870677,
		"areacity_longitude": 12.93833734889203,
		"ehoss_present": false
	},
	{
		"rawdata_guid": "4416d6cd-45c8-11ee-98df-000c29627401",
		"rawdata_code": "gestuet-seeorde",
		"rawdata_link": "gestuet-seeor.de",
		"rawdata_latitude": 48.21960534234358,
		"rawdata_longitude": 12.52632867183646,
		"rawdata_address": "Seeor 11, 84570 Polling, Germany",
		"category_guid": "abcc76b0-4d5f-11ed-98da-000c29627401",
		"category_id": "002",
		"category_description": "Equine: Farm",
		"category_mapdescription": "Stable",
		"country_description": "Germany",
		"country_guid": "dc9ceb90-e7c4-11ec-98d7-000c29627401",
		"areacity_guid": "536c91dd-6f90-11ee-98df-000c29627401",
		"areacity_description": "Mühldorf",
		"areacity_latitude": 48.24594167659819,
		"areacity_longitude": 12.52054240333319,
		"ehoss_present": false
	},
	{
		"rawdata_guid": "891a1dfc-45ca-11ee-98df-000c29627401",
		"rawdata_code": "brvbregenzat",
		"rawdata_link": "brvbregenz.at",
		"rawdata_latitude": 47.49998025084515,
		"rawdata_longitude": 9.70452478236743,
		"rawdata_address": "Achsiedlungsstraße 95, 6900 Bregenz, Austria",
		"category_guid": "abcc76b0-4d5f-11ed-98da-000c29627401",
		"category_id": "002",
		"category_description": "Equine: Farm",
		"category_mapdescription": "Stable",
		"country_description": "Austria",
		"country_guid": "dc9cebb9-e7c4-11ec-98d7-000c29627401",
		"areacity_guid": "1d2ffa18-4439-11ee-98df-000c29627401",
		"areacity_description": "Bregenz",
		"areacity_latitude": 47.50121958347429,
		"areacity_longitude": 9.74255550145664,
		"ehoss_present": false
	},
	{
		"rawdata_guid": "e98b266c-45ca-11ee-98df-000c29627401",
		"rawdata_code": "penny-well-ranchde",
		"rawdata_link": "penny-well-ranch.de",
		"rawdata_latitude": 48.00582751832859,
		"rawdata_longitude": 11.90690423558186,
		"rawdata_address": "Eichtling 1, 85567 Bruck, Germany",
		"category_guid": "abcc76b0-4d5f-11ed-98da-000c29627401",
		"category_id": "002",
		"category_description": "Equine: Farm",
		"category_mapdescription": "Stable",
		"country_description": "Germany",
		"country_guid": "dc9ceb90-e7c4-11ec-98d7-000c29627401",
		"areacity_guid": "4d1df6fc-7007-11ee-98df-000c29627401",
		"areacity_description": "Grafing",
		"areacity_latitude": 48.04424988657508,
		"areacity_longitude": 11.96379886125816,
		"ehoss_present": false
	},
	{
		"rawdata_guid": "04b6a57a-45cb-11ee-98df-000c29627401",
		"rawdata_code": "dressurstall-magdalenenhofat",
		"rawdata_link": "dressurstall-magdalenenhof.at",
		"rawdata_latitude": 48.03963476514481,
		"rawdata_longitude": 16.74960342471532,
		"rawdata_address": "An D. Koppel 1, 2460 Gemeinde Bruck An Der Leitha, Austria",
		"category_guid": "abcc76b0-4d5f-11ed-98da-000c29627401",
		"category_id": "002",
		"category_description": "Equine: Farm",
		"category_mapdescription": "Stable",
		"country_description": "Austria",
		"country_guid": "dc9cebb9-e7c4-11ec-98d7-000c29627401",
		"areacity_guid": "0b0260d2-6f7a-11ee-98df-000c29627401",
		"areacity_description": "Bruck an der Leitha",
		"areacity_latitude": 48.02477769865017,
		"areacity_longitude": 16.77794198946888,
		"ehoss_present": false
	},
	{
		"rawdata_guid": "2bb12fc4-45cb-11ee-98df-000c29627401",
		"rawdata_code": "barbara-vogrinat",
		"rawdata_link": "barbara-vogrin.at",
		"rawdata_latitude": 47.40652274616534,
		"rawdata_longitude": 15.21620756887037,
		"rawdata_address": "Bruckerstraße 71, 8600 Oberaich, Austria",
		"category_guid": "abcc76b0-4d5f-11ed-98da-000c29627401",
		"category_id": "002",
		"category_description": "Equine: Farm",
		"category_mapdescription": "Stable",
		"country_description": "Austria",
		"country_guid": "dc9cebb9-e7c4-11ec-98d7-000c29627401",
		"areacity_guid": "36fd3b01-443e-11ee-98df-000c29627401",
		"areacity_description": "Bruck an der Mur",
		"areacity_latitude": 47.41261883457156,
		"areacity_longitude": 15.27298289354626,
		"ehoss_present": false
	},
	{
		"rawdata_guid": "5786ff08-45cb-11ee-98df-000c29627401",
		"rawdata_code": "reitcoachingat",
		"rawdata_link": "reitcoaching.at",
		"rawdata_latitude": 48.03236722469691,
		"rawdata_longitude": 16.76825048453119,
		"rawdata_address": "Fischamender Str. 59, 2460 Gemeinde Bruck An Der Leitha, Austria",
		"category_guid": "abcc76b0-4d5f-11ed-98da-000c29627401",
		"category_id": "002",
		"category_description": "Equine: Farm",
		"category_mapdescription": "Stable",
		"country_description": "Austria",
		"country_guid": "dc9cebb9-e7c4-11ec-98d7-000c29627401",
		"areacity_guid": "0b0260d2-6f7a-11ee-98df-000c29627401",
		"areacity_description": "Bruck an der Leitha",
		"areacity_latitude": 48.02477769865017,
		"areacity_longitude": 16.77794198946888,
		"ehoss_present": false
	},
	{
		"rawdata_guid": "6759ea02-45cb-11ee-98df-000c29627401",
		"rawdata_code": "ponyclub-schlottde",
		"rawdata_link": "ponyclub-schlott.de",
		"rawdata_latitude": 48.54090571891505,
		"rawdata_longitude": 11.99078226920364,
		"rawdata_address": "Schlott 1, 84079 Bruckberg, Germany",
		"category_guid": "abcc76b0-4d5f-11ed-98da-000c29627401",
		"category_id": "002",
		"category_description": "Equine: Farm",
		"category_mapdescription": "Stable",
		"country_description": "Germany",
		"country_guid": "dc9ceb90-e7c4-11ec-98d7-000c29627401",
		"areacity_guid": "7ca50446-6ffa-11ee-98df-000c29627401",
		"areacity_description": "Moosburg",
		"areacity_latitude": 48.47044229123149,
		"areacity_longitude": 11.93268538676404,
		"ehoss_present": false
	},
	{
		"rawdata_guid": "798a70c6-45cb-11ee-98df-000c29627401",
		"rawdata_code": "klosterhof-pferdepensionde",
		"rawdata_link": "klosterhof-pferdepension.de",
		"rawdata_latitude": 48.52576130968684,
		"rawdata_longitude": 11.96810945374399,
		"rawdata_address": "Hartshausen 2, 84079 Bruckberg, Germany",
		"category_guid": "abcc76b0-4d5f-11ed-98da-000c29627401",
		"category_id": "002",
		"category_description": "Equine: Farm",
		"category_mapdescription": "Stable",
		"country_description": "Germany",
		"country_guid": "dc9ceb90-e7c4-11ec-98d7-000c29627401",
		"areacity_guid": "7ca50446-6ffa-11ee-98df-000c29627401",
		"areacity_description": "Moosburg",
		"areacity_latitude": 48.47044229123149,
		"areacity_longitude": 11.93268538676404,
		"ehoss_present": false
	},
	{
		"rawdata_guid": "d22b60d8-45cb-11ee-98df-000c29627401",
		"rawdata_code": "messerschmidhofde",
		"rawdata_link": "messerschmidhof.de",
		"rawdata_latitude": 47.95048887110642,
		"rawdata_longitude": 11.87240686721473,
		"rawdata_address": "Walpersdorf 8, 83620 Feldkirchen-Westerham, Germany",
		"category_guid": "abcc76b0-4d5f-11ed-98da-000c29627401",
		"category_id": "002",
		"category_description": "Equine: Farm",
		"category_mapdescription": "Stable",
		"country_description": "Germany",
		"country_guid": "dc9ceb90-e7c4-11ec-98d7-000c29627401",
		"areacity_guid": "c73a7357-7002-11ee-98df-000c29627401",
		"areacity_description": "Bruckmühl",
		"areacity_latitude": 47.87595647235831,
		"areacity_longitude": 11.90949272346947,
		"ehoss_present": false
	},
	{
		"rawdata_guid": "eba6cd45-45cb-11ee-98df-000c29627401",
		"rawdata_code": "luxi-stablesde",
		"rawdata_link": "luxi-stables.de",
		"rawdata_latitude": 49.3123758724354,
		"rawdata_longitude": 12.13465999795353,
		"rawdata_address": "Am Sollring 9, 92421 Schwandorf, Germany",
		"category_guid": "abcc76b0-4d5f-11ed-98da-000c29627401",
		"category_id": "002",
		"category_description": "Equine: Farm",
		"category_mapdescription": "Stable",
		"country_description": "Germany",
		"country_guid": "dc9ceb90-e7c4-11ec-98d7-000c29627401",
		"areacity_guid": "371284f8-6ffe-11ee-98df-000c29627401",
		"areacity_description": "Schwandorf",
		"areacity_latitude": 49.33139455151937,
		"areacity_longitude": 12.10276623807968,
		"ehoss_present": false
	},
	{
		"rawdata_guid": "5babbc24-45cc-11ee-98df-000c29627401",
		"rawdata_code": "luckyhorsecorralcom",
		"rawdata_link": "luckyhorsecorral.com",
		"rawdata_latitude": 48.32445187718005,
		"rawdata_longitude": 11.33232839791815,
		"rawdata_address": "Rienshofen 2, 85247 Schwabhausen, Germany",
		"category_guid": "abcc76b0-4d5f-11ed-98da-000c29627401",
		"category_id": "002",
		"category_description": "Equine: Farm",
		"category_mapdescription": "Stable",
		"country_description": "Germany",
		"country_guid": "dc9ceb90-e7c4-11ec-98d7-000c29627401",
		"areacity_guid": "29a07779-6ffd-11ee-98df-000c29627401",
		"areacity_description": "Markt Indersdorf",
		"areacity_latitude": 48.36267863832771,
		"areacity_longitude": 11.37804289536834,
		"ehoss_present": false
	},
	{
		"rawdata_guid": "7dacdcdb-45cc-11ee-98df-000c29627401",
		"rawdata_code": "reitanlage-am-irschenbergcom",
		"rawdata_link": "reitanlage-am-irschenberg.com",
		"rawdata_latitude": 47.80536996100445,
		"rawdata_longitude": 11.88103191718566,
		"rawdata_address": "Schwaig 9, 83737 Irschenberg, Germany",
		"category_guid": "abcc76b0-4d5f-11ed-98da-000c29627401",
		"category_id": "002",
		"category_description": "Equine: Farm",
		"category_mapdescription": "Stable",
		"country_description": "Germany",
		"country_guid": "dc9ceb90-e7c4-11ec-98d7-000c29627401",
		"areacity_guid": "a4ce6a7c-6fed-11ee-98df-000c29627401",
		"areacity_description": "Munich",
		"areacity_latitude": 48.13394957536405,
		"areacity_longitude": 11.58045956056384,
		"ehoss_present": false
	},
	{
		"rawdata_guid": "916df59e-45cc-11ee-98df-000c29627401",
		"rawdata_code": "rvbrunnerheidejimdofreecom",
		"rawdata_link": "rvbrunnerheide.jimdofree.com",
		"rawdata_latitude": 48.1168857101335,
		"rawdata_longitude": 16.30592051140197,
		"rawdata_address": "Huttarystraße 30, 2345 Brunn Am Gebirge, Austria",
		"category_guid": "abcc76b0-4d5f-11ed-98da-000c29627401",
		"category_id": "002",
		"category_description": "Equine: Farm",
		"category_mapdescription": "Stable",
		"country_description": "Austria",
		"country_guid": "dc9cebb9-e7c4-11ec-98d7-000c29627401",
		"areacity_guid": "a1ef621d-4434-11ee-98df-000c29627401",
		"areacity_description": "Vienna",
		"areacity_latitude": 48.20950404629586,
		"areacity_longitude": 16.37212874566252,
		"ehoss_present": false
	},
	{
		"rawdata_guid": "f4624736-45cc-11ee-98df-000c29627401",
		"rawdata_code": "fjordhof-kornfuehrerde",
		"rawdata_link": "fjordhof-kornfuehrer.de",
		"rawdata_latitude": 50.8941013419181,
		"rawdata_longitude": 7.37922944606918,
		"rawdata_address": "Reithalle, 53804 Much, Germany",
		"category_guid": "abcc76b0-4d5f-11ed-98da-000c29627401",
		"category_id": "002",
		"category_description": "Equine: Farm",
		"category_mapdescription": "Stable",
		"country_description": "Germany",
		"country_guid": "dc9ceb90-e7c4-11ec-98d7-000c29627401",
		"areacity_guid": "a0f31f06-6f80-11ee-98df-000c29627401",
		"areacity_description": "Much",
		"areacity_latitude": 50.90399568729019,
		"areacity_longitude": 7.40151374569757,
		"ehoss_present": false
	},
	{
		"rawdata_guid": "61024563-45cd-11ee-98df-000c29627401",
		"rawdata_code": "nhtcc",
		"rawdata_link": "nht.cc",
		"rawdata_latitude": 48.36283951895969,
		"rawdata_longitude": 15.79081240466516,
		"rawdata_address": "Frauendorf 37, 3133 Traismauer, Austria",
		"category_guid": "abcc76b0-4d5f-11ed-98da-000c29627401",
		"category_id": "002",
		"category_description": "Equine: Farm",
		"category_mapdescription": "Stable",
		"country_description": "Austria",
		"country_guid": "dc9cebb9-e7c4-11ec-98d7-000c29627401",
		"areacity_guid": "77480f5d-4438-11ee-98df-000c29627401",
		"areacity_description": "Sankt Polten",
		"areacity_latitude": 48.20426074470878,
		"areacity_longitude": 15.62848731363069,
		"ehoss_present": false
	},
	{
		"rawdata_guid": "76b5ac04-45cd-11ee-98df-000c29627401",
		"rawdata_code": "reitunterrichtsabinemohrjimdofreecom",
		"rawdata_link": "reitunterrichtsabinemohr.jimdofree.com",
		"rawdata_latitude": 51.18346175221934,
		"rawdata_longitude": 7.1366443348994,
		"rawdata_address": "Jöferweg 26, 42349 Wuppertal, Germany",
		"category_guid": "abcc76b0-4d5f-11ed-98da-000c29627401",
		"category_id": "002",
		"category_description": "Equine: Farm",
		"category_mapdescription": "Stable",
		"country_description": "Germany",
		"country_guid": "dc9ceb90-e7c4-11ec-98d7-000c29627401",
		"areacity_guid": "4bf4ab9d-7019-11ee-98df-000c29627401",
		"areacity_description": "Remscheid",
		"areacity_latitude": 51.18280416493366,
		"areacity_longitude": 7.17936033273895,
		"ehoss_present": false
	},
	{
		"rawdata_guid": "a0930c89-45d0-11ee-98df-000c29627401",
		"rawdata_code": "crvdat",
		"rawdata_link": "crvd.at",
		"rawdata_latitude": 47.41969320867462,
		"rawdata_longitude": 9.72161841562288,
		"rawdata_address": "Höchsterstraße 100, 6850 Dornbirn, Austria",
		"category_guid": "abcc76b0-4d5f-11ed-98da-000c29627401",
		"category_id": "002",
		"category_description": "Equine: Farm",
		"category_mapdescription": "Stable",
		"country_description": "Austria",
		"country_guid": "dc9cebb9-e7c4-11ec-98d7-000c29627401",
		"areacity_guid": "990902fa-4438-11ee-98df-000c29627401",
		"areacity_description": "Dornbirn",
		"areacity_latitude": 47.41277892868037,
		"areacity_longitude": 9.74659820622311,
		"ehoss_present": false
	},
	{
		"rawdata_guid": "b0bbcc0d-45d0-11ee-98df-000c29627401",
		"rawdata_code": "villamomoat",
		"rawdata_link": "villamomo.at",
		"rawdata_latitude": 47.4301621243871,
		"rawdata_longitude": 9.72442284003586,
		"rawdata_address": "Foracheck 2, 6850 Dornbirn, Austria",
		"category_guid": "abcc76b0-4d5f-11ed-98da-000c29627401",
		"category_id": "002",
		"category_description": "Equine: Farm",
		"category_mapdescription": "Stable",
		"country_description": "Austria",
		"country_guid": "dc9cebb9-e7c4-11ec-98d7-000c29627401",
		"areacity_guid": "990902fa-4438-11ee-98df-000c29627401",
		"areacity_description": "Dornbirn",
		"areacity_latitude": 47.41277892868037,
		"areacity_longitude": 9.74659820622311,
		"ehoss_present": false
	},
	{
		"rawdata_guid": "d64e0be7-45d0-11ee-98df-000c29627401",
		"rawdata_code": "silvis-pferdeparadiescom",
		"rawdata_link": "silvis-pferdeparadies.com",
		"rawdata_latitude": 47.43674312729053,
		"rawdata_longitude": 9.72765224021434,
		"rawdata_address": "Forachstraße 117, 6850 Dornbirn, Austria",
		"category_guid": "abcc76b0-4d5f-11ed-98da-000c29627401",
		"category_id": "002",
		"category_description": "Equine: Farm",
		"category_mapdescription": "Stable",
		"country_description": "Austria",
		"country_guid": "dc9cebb9-e7c4-11ec-98d7-000c29627401",
		"areacity_guid": "990902fa-4438-11ee-98df-000c29627401",
		"areacity_description": "Dornbirn",
		"areacity_latitude": 47.41277892868037,
		"areacity_longitude": 9.74659820622311,
		"ehoss_present": false
	},
	{
		"rawdata_guid": "253cf1dd-45d1-11ee-98df-000c29627401",
		"rawdata_code": "sportpferde-damarishofcom",
		"rawdata_link": "sportpferde-damarishof.com",
		"rawdata_latitude": 47.94994311415665,
		"rawdata_longitude": 16.4516776476478,
		"rawdata_address": "Unterwaltersdorfer Str. 99, 2443 Deutsch-Brodersdorf, Austria",
		"category_guid": "abcc76b0-4d5f-11ed-98da-000c29627401",
		"category_id": "002",
		"category_description": "Equine: Farm",
		"category_mapdescription": "Stable",
		"country_description": "Austria",
		"country_guid": "dc9cebb9-e7c4-11ec-98d7-000c29627401",
		"areacity_guid": "9446e3b4-443c-11ee-98df-000c29627401",
		"areacity_description": "Ebreichsdorf",
		"areacity_latitude": 47.96407067245661,
		"areacity_longitude": 16.40259065007459,
		"ehoss_present": false
	},
	{
		"rawdata_guid": "3742b112-45d1-11ee-98df-000c29627401",
		"rawdata_code": "premium-dressageat",
		"rawdata_link": "premium-dressage.at",
		"rawdata_latitude": 47.90999941316672,
		"rawdata_longitude": 16.39522791913957,
		"rawdata_address": "Am Kanal, 2486 Pottendorf, Austria",
		"category_guid": "abcc76b0-4d5f-11ed-98da-000c29627401",
		"category_id": "002",
		"category_description": "Equine: Farm",
		"category_mapdescription": "Stable",
		"country_description": "Austria",
		"country_guid": "dc9cebb9-e7c4-11ec-98d7-000c29627401",
		"areacity_guid": "b87a5a02-4438-11ee-98df-000c29627401",
		"areacity_description": "Wiener Neustadt",
		"areacity_latitude": 47.80450709505082,
		"areacity_longitude": 16.23543940621163,
		"ehoss_present": false
	},
	{
		"rawdata_guid": "4520e85f-45d1-11ee-98df-000c29627401",
		"rawdata_code": "df-ridingat",
		"rawdata_link": "df-riding.at",
		"rawdata_latitude": 47.97743388542742,
		"rawdata_longitude": 16.38395032647798,
		"rawdata_address": "Pferdepromenade 4, 2483 Ebreichsdorf, Austria",
		"category_guid": "abcc76b0-4d5f-11ed-98da-000c29627401",
		"category_id": "002",
		"category_description": "Equine: Farm",
		"category_mapdescription": "Stable",
		"country_description": "Austria",
		"country_guid": "dc9cebb9-e7c4-11ec-98d7-000c29627401",
		"areacity_guid": "a1ef621d-4434-11ee-98df-000c29627401",
		"areacity_description": "Vienna",
		"areacity_latitude": 48.20950404629586,
		"areacity_longitude": 16.37212874566252,
		"ehoss_present": false
	},
	{
		"rawdata_guid": "56defd1a-45d1-11ee-98df-000c29627401",
		"rawdata_code": "magnaracinoat",
		"rawdata_link": "magnaracino.at",
		"rawdata_latitude": 47.98068989475175,
		"rawdata_longitude": 16.38527659277895,
		"rawdata_address": "Racinoplatz 1, 2483 Ebreichsdorf, Austria",
		"category_guid": "abcc76b0-4d5f-11ed-98da-000c29627401",
		"category_id": "002",
		"category_description": "Equine: Farm",
		"category_mapdescription": "Stable",
		"country_description": "Austria",
		"country_guid": "dc9cebb9-e7c4-11ec-98d7-000c29627401",
		"areacity_guid": "a1ef621d-4434-11ee-98df-000c29627401",
		"areacity_description": "Vienna",
		"areacity_latitude": 48.20950404629586,
		"areacity_longitude": 16.37212874566252,
		"ehoss_present": true
	},
	{
		"rawdata_guid": "70d8c7e4-45d1-11ee-98df-000c29627401",
		"rawdata_code": "dressurtrainingat",
		"rawdata_link": "dressurtraining.at",
		"rawdata_latitude": 47.80072311840504,
		"rawdata_longitude": 16.14533752655479,
		"rawdata_address": "Obere Trift 276, 2722 Weikersdorf Am Steinfelde, Austria",
		"category_guid": "abcc76b0-4d5f-11ed-98da-000c29627401",
		"category_id": "002",
		"category_description": "Equine: Farm",
		"category_mapdescription": "Stable",
		"country_description": "Austria",
		"country_guid": "dc9cebb9-e7c4-11ec-98d7-000c29627401",
		"areacity_guid": "b87a5a02-4438-11ee-98df-000c29627401",
		"areacity_description": "Wiener Neustadt",
		"areacity_latitude": 47.80450709505082,
		"areacity_longitude": 16.23543940621163,
		"ehoss_present": false
	},
	{
		"rawdata_guid": "bf958e41-45d1-11ee-98df-000c29627401",
		"rawdata_code": "karins-pferdlereiat",
		"rawdata_link": "karins-pferdlerei.at",
		"rawdata_latitude": 47.82010782705337,
		"rawdata_longitude": 16.53365844022775,
		"rawdata_address": "Siegendorfer Str. 548, 7000 Eisenstadt, Austria",
		"category_guid": "abcc76b0-4d5f-11ed-98da-000c29627401",
		"category_id": "002",
		"category_description": "Equine: Farm",
		"category_mapdescription": "Stable",
		"country_description": "Austria",
		"country_guid": "dc9cebb9-e7c4-11ec-98d7-000c29627401",
		"areacity_guid": "ccb73780-4439-11ee-98df-000c29627401",
		"areacity_description": "Eisenstadt",
		"areacity_latitude": 47.84621643680935,
		"areacity_longitude": 16.52871501838987,
		"ehoss_present": false
	},
	{
		"rawdata_guid": "00ebb118-45d2-11ee-98df-000c29627401",
		"rawdata_code": "equiterraat",
		"rawdata_link": "equiterra.at",
		"rawdata_latitude": 48.32733869721302,
		"rawdata_longitude": 14.38925032867703,
		"rawdata_address": "Oberreichenbach 8, 4209 Oberreichenbach, Austria",
		"category_guid": "abcc76b0-4d5f-11ed-98da-000c29627401",
		"category_id": "002",
		"category_description": "Equine: Farm",
		"category_mapdescription": "Stable",
		"country_description": "Austria",
		"country_guid": "dc9cebb9-e7c4-11ec-98d7-000c29627401",
		"areacity_guid": "ac12a392-4437-11ee-98df-000c29627401",
		"areacity_description": "Linz",
		"areacity_latitude": 48.30416376654945,
		"areacity_longitude": 14.28861527960176,
		"ehoss_present": false
	},
	{
		"rawdata_guid": "5acaff89-45d2-11ee-98df-000c29627401",
		"rawdata_code": "kein-ponyhofat",
		"rawdata_link": "kein-ponyhof.at",
		"rawdata_latitude": 48.38432559674434,
		"rawdata_longitude": 14.48653667981672,
		"rawdata_address": "Loibersdorf 2A, 4213 Loibersdorf, Austria",
		"category_guid": "abcc76b0-4d5f-11ed-98da-000c29627401",
		"category_id": "002",
		"category_description": "Equine: Farm",
		"category_mapdescription": "Stable",
		"country_description": "Austria",
		"country_guid": "dc9cebb9-e7c4-11ec-98d7-000c29627401",
		"areacity_guid": "ac12a392-4437-11ee-98df-000c29627401",
		"areacity_description": "Linz",
		"areacity_latitude": 48.30416376654945,
		"areacity_longitude": 14.28861527960176,
		"ehoss_present": false
	},
	{
		"rawdata_guid": "3045ce9a-45d3-11ee-98df-000c29627401",
		"rawdata_code": "jacs-pony-ranchde",
		"rawdata_link": "jacs-pony-ranch.de",
		"rawdata_latitude": 49.56209503808881,
		"rawdata_longitude": 8.62322331330765,
		"rawdata_address": "Bertleinsbrücke 11, 69469 Weinheim, Germany",
		"category_guid": "abcc76b0-4d5f-11ed-98da-000c29627401",
		"category_id": "002",
		"category_description": "Equine: Farm",
		"category_mapdescription": "Stable",
		"country_description": "Germany",
		"country_guid": "dc9ceb90-e7c4-11ec-98d7-000c29627401",
		"areacity_guid": "639a21ad-6ff6-11ee-98df-000c29627401",
		"areacity_description": "Weinheim",
		"areacity_latitude": 49.54504653354555,
		"areacity_longitude": 8.65861127540289,
		"ehoss_present": false
	},
	{
		"rawdata_guid": "6b3d13a6-45d3-11ee-98df-000c29627401",
		"rawdata_code": "sagarabiat",
		"rawdata_link": "sagarabi.at",
		"rawdata_latitude": 48.2279836849545,
		"rawdata_longitude": 14.38296897093231,
		"rawdata_address": "Bruck Bei Tödling 4, 4490, Austria",
		"category_guid": "abcc76b0-4d5f-11ed-98da-000c29627401",
		"category_id": "002",
		"category_description": "Equine: Farm",
		"category_mapdescription": "Stable",
		"country_description": "Austria",
		"country_guid": "dc9cebb9-e7c4-11ec-98d7-000c29627401",
		"areacity_guid": "ac12a392-4437-11ee-98df-000c29627401",
		"areacity_description": "Linz",
		"areacity_latitude": 48.30416376654945,
		"areacity_longitude": 14.28861527960176,
		"ehoss_present": false
	},
	{
		"rawdata_guid": "85c24404-45d7-11ee-98df-000c29627401",
		"rawdata_code": "stallfrickcom",
		"rawdata_link": "stallfrick.com",
		"rawdata_latitude": 47.18266060928802,
		"rawdata_longitude": 9.52180602182259,
		"rawdata_address": "Schwarz Strässle 9, 9494 Schaan, Liechtenstein",
		"category_guid": "abcc76b0-4d5f-11ed-98da-000c29627401",
		"category_id": "002",
		"category_description": "Equine: Farm",
		"category_mapdescription": "Stable",
		"country_description": "Liechtenstein",
		"country_guid": "fa4a3385-e7c6-11ec-98d7-000c29627401",
		"areacity_guid": "8b0fd1a7-700a-11ee-98df-000c29627401",
		"areacity_description": "Vaduz",
		"areacity_latitude": 47.14084944652601,
		"areacity_longitude": 9.52053462089416,
		"ehoss_present": false
	},
	{
		"rawdata_guid": "76d7d552-45d8-11ee-98df-000c29627401",
		"rawdata_code": "hoelzlhofde",
		"rawdata_link": "hoelzlhof.de",
		"rawdata_latitude": 48.14205899172563,
		"rawdata_longitude": 11.75190785002261,
		"rawdata_address": "Weißenfelder Str. 10, 85622 Feldkirchen, Germany",
		"category_guid": "abcc76b0-4d5f-11ed-98da-000c29627401",
		"category_id": "002",
		"category_description": "Equine: Farm",
		"category_mapdescription": "Stable",
		"country_description": "Germany",
		"country_guid": "dc9ceb90-e7c4-11ec-98d7-000c29627401",
		"areacity_guid": "a4ce6a7c-6fed-11ee-98df-000c29627401",
		"areacity_description": "Munich",
		"areacity_latitude": 48.13394957536405,
		"areacity_longitude": 11.58045956056384,
		"ehoss_present": false
	},
	{
		"rawdata_guid": "cfcd0eb7-45d8-11ee-98df-000c29627401",
		"rawdata_code": "einfach-doppelat",
		"rawdata_link": "einfach-doppel.at",
		"rawdata_latitude": 46.55293046392259,
		"rawdata_longitude": 13.86201692651208,
		"rawdata_address": "Goritschach 5, 9584 Finkenstein Am Faaker See, Austria",
		"category_guid": "abcc76b0-4d5f-11ed-98da-000c29627401",
		"category_id": "002",
		"category_description": "Equine: Farm",
		"category_mapdescription": "Stable",
		"country_description": "Austria",
		"country_guid": "dc9cebb9-e7c4-11ec-98d7-000c29627401",
		"areacity_guid": "4219d997-4438-11ee-98df-000c29627401",
		"areacity_description": "Villach",
		"areacity_latitude": 46.61336820866217,
		"areacity_longitude": 13.84654837787927,
		"ehoss_present": false
	},